{"Ridgeway Hill":{"name":"Ridgeway Hill","url":"https://megalithic.co.uk/article.php?sid=54799","category":"Neolithic and Bronze Age","latitude":"Latitude: 50.670934N","longitude":"Longitude: 2.465514W","imgurl":"https://megalithic.co.uk/a558/a312/gallery/England/Dorset/zkr_IMG_4051.JPG","description":"Barrow Cemetery in Dorset"},"Black Down (Dorset)":{"name":"Black Down (Dorset)","url":"https://megalithic.co.uk/article.php?sid=54732","category":"Modern Sites","latitude":"Latitude: 50.687354N","longitude":"Longitude: 2.556133W","imgurl":"https://megalithic.co.uk/a558/a312/gallery/England/Dorset/itd_IMG_3844.JPG","description":"Modern Stone Circle etc in Dorset. \"The Black Down stone circle consists of five totems built from local Forest Marble stone. One is aligned with true north and the other four with the midwinter and midsummer solstice sunrises and sunsets. In clear conditions at each of these times, the Suns full disc shines through an opening in one of the totems, lighting up a central rock of Portland stone.\""},"Monkton-up-Wimborne Late Neolithic pit circle/shaft complex":{"name":"Monkton-up-Wimborne Late Neolithic pit circle/shaft complex","url":"https://megalithic.co.uk/article.php?sid=53811","category":"Neolithic and Bronze Age","latitude":"Latitude: 50.922486N","longitude":"Longitude: 1.982734W","imgurl":"https://megalithic.co.uk/a558/a312/gallery/England/Dorset/05-cranborne-chase-neolithic-burial-shaft-plan.jpg","description":"Excavated in 1997 by Martin Green, the Monkton Up Wimborne site in Dorset is unique and comprises a large central pit surrounded by a ring of smaller pits. To one side of this pit is the burial of a Middle Neolithic family: a mother and several children, dating to c.3500 BC. Close to this burial a shaft 7m deep was dug into the chalk."},"Mount Pleasant (Dorset)":{"name":"Mount Pleasant (Dorset)","url":"https://megalithic.co.uk/article.php?sid=1378","category":"Neolithic and Bronze Age","latitude":"Latitude: 50.708905N","longitude":"Longitude: 2.412072W","imgurl":"https://megalithic.co.uk/a558/a312/gallery/England/Dorset/Mt_PleasantBWJPollard.jpg","description":"Henge, Barrows and Timber circle in Dorset. Conquer Barrow sits in the extreme west side of the field containing Mount Pleasant henge and overlies the henge earthworks on the western side. Quoting Martyn Barber, Historic England Aerial survey: \"Three barrows were already known - the massive Conquer Barrow, which either sits on the henge's western bank or was already standing and incorporated within the henge bank when the latter was built, is the most obvious. The remains of two more normally proportioned mounds lie to the south-east of the henge.\""},"Valley of Stones circle":{"name":"Valley of Stones circle","url":"https://megalithic.co.uk/article.php?sid=7557","category":"Neolithic and Bronze Age","latitude":"Latitude: 50.684667N","longitude":"Longitude: 2.572379W","imgurl":"https://megalithic.co.uk/a558/a312/gallery/England/Dorset/IMG_2614_2.JPG","description":"Possible large stone circle in the south-easterly section of the Valley of Stones in Dorset. Gerald Ponting writes: When I went down there I became convinced that this was a genuine megalithic circle. As far as I know, there seems no record of this as an archaeological site - unless you know better.  "},"Rempstone":{"name":"Rempstone","url":"https://megalithic.co.uk/article.php?sid=562","category":"Neolithic and Bronze Age","latitude":"Latitude: 50.638412N","longitude":"Longitude: 2.008998W","imgurl":"https://megalithic.co.uk/a558/a312/gallery/England/Dorset/IMG_2891_2.JPG","description":"A forgotten gem of a site, nestled in the enclosing bosom of the Purbeck Hills, Dorset. A once grand circle and remains of stone avenues, now almost forgotten. Really atmospheric despite it's near destruction and roadside proximity."},"Knowlton Rings":{"name":"Knowlton Rings","url":"https://megalithic.co.uk/article.php?sid=91","category":"Neolithic and Bronze Age","latitude":"Latitude: 50.891999N","longitude":"Longitude: 1.967532W","imgurl":"https://megalithic.co.uk/a558/a312/gallery/England/Dorset/IMGP6220_01.jpg","description":"Henge in Dorset with a church built in the middle, which must point to early Christianisation of a pagan temple. There are actually three henges here, as shown in detailed research done by students of Bournemouth University."},"Hengistbury Head":{"name":"Hengistbury Head","url":"https://megalithic.co.uk/article.php?sid=1513","category":"Iron Age and Later Prehistory","latitude":"Latitude: 50.719301N","longitude":"Longitude: 1.770467W","imgurl":"https://megalithic.co.uk/a558/a312/gallery/England/Dorset/HengistburyHeadModel.jpg","description":"Evidence of a very long period of occupation with evidence of palaeolithic and mesolithic hunters, 13 Bronze Age barrows and an Iron Age promontory fort in Dorset. Numerous finds particularly from the period after 7th century BC when the area became a major port trading with Gaul and the Mediterranean. "},"Bronkham Hill":{"name":"Bronkham Hill","url":"https://megalithic.co.uk/article.php?sid=11524","category":"Neolithic and Bronze Age","latitude":"Latitude: 50.680372N","longitude":"Longitude: 2.529724W","imgurl":"https://megalithic.co.uk/a558/a312/gallery/England/Dorset/Bronkham_Hill_hole2.jpg","description":"A multitude of round barrows on Bronkham Hill in Dorset, part of the Dorset Ridgeway. The barrows are scattered along the length of the ridge, with an incredible density. "},"St Candida &amp; Holy Cross (Whitchurch Canonicorum)":{"name":"St Candida &amp; Holy Cross (Whitchurch Canonicorum)","url":"https://megalithic.co.uk/article.php?sid=51236","category":"Early Medieval (Dark Age)","latitude":"Latitude: 50.755335N","longitude":"Longitude: 2.856517W","imgurl":"https://megalithic.co.uk/a558/a312/gallery/England/Dorset/St_Candida_1.jpg","description":"Early Christian Sculptured Stone in Dorset"},"Hellstone":{"name":"Hellstone","url":"https://megalithic.co.uk/article.php?sid=4664","category":"Neolithic and Bronze Age","latitude":"Latitude: 50.678615N","longitude":"Longitude: 2.559285W","imgurl":"https://megalithic.co.uk/a558/a312/gallery/England/Dorset/IMG_8181-FullSizeRender.jpg","description":"Long Barrow in Dorset. The Hellstone on Portesham Hill is an impressive dolmen, restored in 1866 after the capstone had fallen some six years earlier."},"Church Hill Enclosure (Alton Pancras)":{"name":"Church Hill Enclosure (Alton Pancras)","url":"https://megalithic.co.uk/article.php?sid=48747","category":"Multi-period","latitude":"Latitude: 50.831296N","longitude":"Longitude: 2.406703W","imgurl":"https://megalithic.co.uk/a558/a312/gallery/England/Dorset/tjz_DSCF3935.jpg","description":"A square earthwork, about 25m each side, a raised bank about 1m above the flat surrounding ground, immediately adjacent to the Wessex Ridgeway, not far from the famous crossroads of ancient Wessex trackways called the Dorset Gap."},"Bindon Hill Barrows":{"name":"Bindon Hill Barrows","url":"https://megalithic.co.uk/article.php?sid=48680","category":"Neolithic and Bronze Age","latitude":"Latitude: 50.621824N","longitude":"Longitude: 2.22655W","imgurl":"https://megalithic.co.uk/a558/a312/gallery/England/Dorset/aP1050363_Bindon_Hill.JPG","description":"Near the eastern end of the Bindon Hill ridge, just away from the actual summit, are the ruined remains of a couple of barrows. "},"Hambury Tout Barrows":{"name":"Hambury Tout Barrows","url":"https://megalithic.co.uk/article.php?sid=48679","category":"Neolithic and Bronze Age","latitude":"Latitude: 50.622020N","longitude":"Longitude: 2.26175W","imgurl":"https://megalithic.co.uk/a558/a312/gallery/England/Dorset/a20170414_160241_Bindon_Hill.jpg","description":"There are a couple of barrows on top of Hambury Tout, near the busy coast path on top of the steep hill between Lulworth Cove and Durdle Dor.  "},"Maiden Castle (Dorset)":{"name":"Maiden Castle (Dorset)","url":"https://megalithic.co.uk/article.php?sid=107","category":"Iron Age and Later Prehistory","latitude":"Latitude: 50.694837N","longitude":"Longitude: 2.469998W","imgurl":"https://megalithic.co.uk/a558/a312/gallery/England/Dorset/02_DSC_7089_via_NK2_portalised.jpg","description":"Neolithic Causewayed Enclosure and Iron Age Hillfort in Dorset. The most spectacular hillfort in southern England. "},"Tout Quarry Sculpture Park - The Circle of Stones":{"name":"Tout Quarry Sculpture Park - The Circle of Stones","url":"https://megalithic.co.uk/article.php?sid=47184","category":"Modern Sites","latitude":"Latitude: 50.551219N","longitude":"Longitude: 2.447536W","imgurl":"https://megalithic.co.uk/a558/a312/gallery/England/Wiltshire/dqm_DSCN3254a.jpg","description":"Tout Quarry is a disused quarry that has been a nature reserve and sculpture park since 1983 with the formation of the Portland Sculpture and Quarry Trust [1]. The quarry is home to a collection of amazing sculptures, one of which is the The Circle of Stones or Cirkel van Stenen in the language of the sculptors."},"Tout Quarry Sculpture Park Stone Circle":{"name":"Tout Quarry Sculpture Park Stone Circle","url":"https://megalithic.co.uk/article.php?sid=47162","category":"Modern Sites","latitude":"Latitude: 50.554656N","longitude":"Longitude: 2.442628W","imgurl":"https://megalithic.co.uk/a558/a312/gallery/England/Dorset/ejf_IMG_0101.JPG","description":"This modern stone circle (more of a 'cove' of stones, I suggest) at Portland's Tout Quarry Sculpture Park on Portland Bill in Dorset was officially opened on June 21st 2017. Also a modern stone row (see nearby sites)."},"Tout Quarry Sculpture Park Alignment":{"name":"Tout Quarry Sculpture Park Alignment","url":"https://megalithic.co.uk/article.php?sid=47163","category":"Modern Sites","latitude":"Latitude: 50.554377N","longitude":"Longitude: 2.445025W","imgurl":"https://megalithic.co.uk/a558/a312/gallery/England/Dorset/bwo_IMG_0126.JPG","description":"A modern megalithic alignment on a ridge on the north west side of Tout Quarry Sculpture Park. "},"Wor Barrow":{"name":"Wor Barrow","url":"https://megalithic.co.uk/article.php?sid=4651","category":"Neolithic and Bronze Age","latitude":"Latitude: 50.955039N","longitude":"Longitude: 1.983719W","imgurl":"https://megalithic.co.uk/a558/a312/gallery/England/Dorset/excavation-of-the-ditch-at-wor-barrow-where-bu.jpg","description":"Long Barrow in Dorset, seemingly the first scientifically excavated long barrow. The barrow was totally excavated in 1893-4 by General Pitt-Rivers in one of the earliest systematic archaeological digs. The barrow was oval in shape with completely surrounding ditches, 45m long and 23m wide and 6m high, aligned along a NE-SW axis."},"The Combe (Dorset)":{"name":"The Combe (Dorset)","url":"https://megalithic.co.uk/article.php?sid=46033","category":"Multi-period","latitude":"Latitude: 50.795636N","longitude":"Longitude: 2.534857W","imgurl":"https://megalithic.co.uk/https://s2.geograph.org.uk/photos/90/83/908338_a7da3bb1_120x120.jpg","description":"br>"},"Cross and Hand Stone":{"name":"Cross and Hand Stone","url":"https://megalithic.co.uk/article.php?sid=46032","category":"Neolithic and Bronze Age","latitude":"Latitude: 50.832555N","longitude":"Longitude: 2.52392W","imgurl":"https://megalithic.co.uk/a558/a312/gallery/England/Dorset/20161229_140414.jpg","description":"Standing Stone (Menhir) in Dorset"},"Knowle Hill Farm long barrow":{"name":"Knowle Hill Farm long barrow","url":"https://megalithic.co.uk/article.php?sid=45388","category":"Neolithic and Bronze Age","latitude":"Latitude: 50.893210N","longitude":"Longitude: 1.957834W","imgurl":"https://megalithic.co.uk/a558/a312/gallery/England/Dorset/qhn_dsc01443.jpg","description":"Excavations at Knowlton, run by the University of Southampton, are investigating a possible Neolithic long barrow or mortuary enclosure located around 500m from the "},"Culverwell Mesolithic Site":{"name":"Culverwell Mesolithic Site","url":"https://megalithic.co.uk/article.php?sid=7451","category":"Multi-period","latitude":"Latitude: 50.522629N","longitude":"Longitude: 2.445714W","imgurl":"https://megalithic.co.uk/a558/a312/gallery/Artefacts/PortlCulvRecon.JPG","description":"Mesolithic Settlement on Portland Bill in Dorset. The main feature on this site is a large floor of limestone slabs on top of a shell midden (rubbish dump). This floor is the earliest known structural evidence in England for the extensive use of Portland Jurassic limestone on a living site."},"Hambledon Farm Stone Circle":{"name":"Hambledon Farm Stone Circle","url":"https://megalithic.co.uk/article.php?sid=42438","category":"Modern Sites","latitude":"Latitude: 50.920443N","longitude":"Longitude: 2.226093W","imgurl":"https://megalithic.co.uk/a558/a312/gallery/England/Dorset/WP_20160424_037_3.jpg","description":"Modern Stone Circle in Dorset"},"St Dunstan's Well":{"name":"St Dunstan's Well","url":"https://megalithic.co.uk/article.php?sid=38089","category":"Springs and Holy Wells","latitude":"Latitude: 50.821952N","longitude":"Longitude: 2.806315W","imgurl":"https://megalithic.co.uk/a558/a312/gallery/England/Dorset/vxq_P1000166.jpg","description":"Holy Well or Sacred Spring in Dorset"},"Eggardon Hill":{"name":"Eggardon Hill","url":"https://megalithic.co.uk/article.php?sid=1499","category":"Iron Age and Later Prehistory","latitude":"Latitude: 50.750257N","longitude":"Longitude: 2.651709W","imgurl":"https://megalithic.co.uk/a558/a312/gallery/England/Dorset/Eggardon_Hillfort_MP_3.jpg","description":"One of the best hillforts in Dorset. Some complain that the problem with hillforts is that they are on hills! Eggardon Hill is minimum effort, maximum reward, and is best approached on the promontory from the east, having come along the line of the Roman Road."},"Bincombe Down":{"name":"Bincombe Down","url":"https://megalithic.co.uk/article.php?sid=37161","category":"Neolithic and Bronze Age","latitude":"Latitude: 50.670074N","longitude":"Longitude: 2.4556W","imgurl":"https://megalithic.co.uk/a558/a312/gallery/England/Dorset/DorsetMay15SuttonPPairBarwsNrCame_020.jpg","description":"Barrow Cemetery in Dorset"},"Maumbury Rings":{"name":"Maumbury Rings","url":"https://megalithic.co.uk/article.php?sid=7537","category":"Neolithic and Bronze Age","latitude":"Latitude: 50.708083N","longitude":"Longitude: 2.440248W","imgurl":"https://megalithic.co.uk/a558/a312/gallery/England/Dorset/MaumburyRings3.jpg","description":"Excavations between 1908 and 1913 indicated this site's origin to be a Neolithic henge. There was a wide ditch inside the circular bank, with a series of tapering shafts about 3 metres apart (suggesting 45 in total). Excavation of eight of the shafts revealed that they were deliberately filled, some containing red deer skulls (or skull fragments) and carved chalk objects. "},"Badbury Rings":{"name":"Badbury Rings","url":"https://megalithic.co.uk/article.php?sid=8","category":"Iron Age and Later Prehistory","latitude":"Latitude: 50.826436N","longitude":"Longitude: 2.05248W","imgurl":"https://megalithic.co.uk/a558/a312/gallery/England/Dorset/IMG_6518badburyRingsb.jpg","description":"Hillfort in Dorset. Three well-worn chalk banks and ditches surround 7 hectares of trees inside. This Iron Age hillfort has never been excavated, so details are sketchy at best, although it lies at the junction of two Roman roads."},"Dorset Cursus":{"name":"Dorset Cursus","url":"https://megalithic.co.uk/article.php?sid=1377","category":"Neolithic and Bronze Age","latitude":"Latitude: 50.943437N","longitude":"Longitude: 1.976464W","imgurl":"https://megalithic.co.uk/a558/a312/gallery/England/Dorset/wyke_down_route.jpg","description":"The Dorset Cursus, probably Britain's largest neolithic site, runs for 6 miles (10km) through the chalk downs of Cranborne Chase. Originally it consisted of a pair of parallel banks about 90m apart running northeast-southwest, but not perfectly straight. It is now largely visible only as crop or soil marks, but some of the original earthworks remain along with many associated long barrows."},"Cerne Abbas Giant":{"name":"Cerne Abbas Giant","url":"https://megalithic.co.uk/article.php?sid=43","category":"Multi-period","latitude":"Latitude: 50.813702N","longitude":"Longitude: 2.474597W","imgurl":"https://megalithic.co.uk/a558/a312/gallery/England/Dorset/cerneabbasgiant.jpg","description":"Hill Figure in Dorset. The Cerne Abbas Giant is a hill-figure cut into the turf and underlying bedrock to expose a white chalk outline. He is almost 60 metres tall, and brandishes a club 36 metres long. His body is outlined and detailed by narrow trenches no more than 0.6 metres wide, and his condition has been maintained by periodic scouring by local people - an activity traditionally separated by long intervals. "},"Long Bredy Bank Barrow":{"name":"Long Bredy Bank Barrow","url":"https://megalithic.co.uk/article.php?sid=4666","category":"Neolithic and Bronze Age","latitude":"Latitude: 50.718389N","longitude":"Longitude: 2.608062W","imgurl":"https://megalithic.co.uk/a558/a312/gallery/England/Dorset/martinsdown_bank_barrow01.jpg","description":"A Neolithic bank barrow on Martin's Down oriented NE-SW, 195m long and 20m wide with parallel ditches either side. After the unusually long "},"Wyke Down henge":{"name":"Wyke Down henge","url":"https://megalithic.co.uk/article.php?sid=4652","category":"Neolithic and Bronze Age","latitude":"Latitude: 50.937145N","longitude":"Longitude: 1.992833W","imgurl":"https://megalithic.co.uk/a558/a312/gallery/England/Dorset/wykedownhenge04.jpg","description":"Two Henges in Dorset, excavated in 1983-4 and 1996. Although they were constructed as a series of pits, the causeways between the pits are very low, indicating that it was a continuous ditch rather than a series of separate pits.\r\n"},"Tarrant Rawston Long Barrow":{"name":"Tarrant Rawston Long Barrow","url":"https://megalithic.co.uk/article.php?sid=34177","category":"Neolithic and Bronze Age","latitude":"Latitude: 50.859477N","longitude":"Longitude: 2.121426W","imgurl":"https://megalithic.co.uk/a558/a312/gallery/England/Dorset/IMG-20130602-00006.jpg","description":"Long Barrow in Dorset"},"The Ancient Technology Centre":{"name":"The Ancient Technology Centre","url":"https://megalithic.co.uk/article.php?sid=33788","category":"Museums","latitude":"Latitude: 50.923090N","longitude":"Longitude: 1.920703W","imgurl":"https://megalithic.co.uk/a558/a312/gallery/England/Dorset/160954_7bec2eed.jpg","description":"The ATC began over 25 years ago as a school project with the building of an Iron Age roundhouse based on archaeological evidence. It now has six full sized reconstructions of ancient buildings."},"Kingston Russell Barrow":{"name":"Kingston Russell Barrow","url":"https://megalithic.co.uk/article.php?sid=33423","category":"Neolithic and Bronze Age","latitude":"Latitude: 50.690976N","longitude":"Longitude: 2.605159W","imgurl":"https://megalithic.co.uk/a558/a312/gallery/England/Dorset/DSCN2704_800x600_640x480.jpg","description":"Only a few hundred yards from Kingston Russell Stone circle lies this lovely round barrow, it has some slight erosion on the sides but stands a good 3 Meters high."},"Valley of Stones quarry":{"name":"Valley of Stones quarry","url":"https://megalithic.co.uk/article.php?sid=4673","category":"Multi-period","latitude":"Latitude: 50.687547N","longitude":"Longitude: 2.571848W","imgurl":"https://megalithic.co.uk/a558/a312/gallery/England/Dorset/ValleyStones1.jpg","description":"A quarry for the stones used in the several megalithic sites within about 5 miles of the valley. The Valley of Stones has been a National Nature Reserve since 1999. The English Nature noticeboard on site mentions that, as well as all the stones which are haphazardly arranged due to a geological event, some of them are arranged as a circle."},"The Fishing Barrow":{"name":"The Fishing Barrow","url":"https://megalithic.co.uk/article.php?sid=31995","category":"Neolithic and Bronze Age","latitude":"Latitude: 50.638589N","longitude":"Longitude: 1.975766W","imgurl":"https://megalithic.co.uk/a558/a312/gallery/England/Dorset/fishing_barrow_panorama_megalithic_800.jpg","description":"Round Barrow in Dorset"},"Ringmoor Settlement":{"name":"Ringmoor Settlement","url":"https://megalithic.co.uk/article.php?sid=31176","category":"Multi-period","latitude":"Latitude: 50.876577N","longitude":"Longitude: 2.27284W","imgurl":"https://megalithic.co.uk/a558/a312/gallery/England/Dorset/ring_from_hut_SE__modified.jpg","description":"Ancient Settlement in Dorset. Ringmoor Settlement, Turnworth, Dorset is an ancient settlement or farmstead on the side of Bulbarrow Hill. It is located on a bridleway and the site is owned by the National Trust. It has not been greatly excavated but is usually described as Iron Age and occupied by the Durotriges. It is about 130 acres in extent, there is a pond at the top, a banked track leading to a circular banked enclosure, and a number of field enclosures also indicated by banks. "},"Clandon Barrow":{"name":"Clandon Barrow","url":"https://megalithic.co.uk/article.php?sid=30449","category":"Neolithic and Bronze Age","latitude":"Latitude: 50.699619N","longitude":"Longitude: 2.488028W","imgurl":"https://megalithic.co.uk/a558/a312/gallery/England/Dorset/ClandonBarrowLozenge.jpg","description":"Round Barrow in Dorset. This barrow produced some very interesting finds, including a shale macehead with gold bosses, and a gold lozenge with a similar pattern to the famous one found in Bush Barrow."},"Maiden Castle Causewayed Enclosure":{"name":"Maiden Castle Causewayed Enclosure","url":"https://megalithic.co.uk/article.php?sid=30301","category":"Neolithic and Bronze Age","latitude":"Latitude: 50.695019N","longitude":"Longitude: 2.469575W","imgurl":"https://megalithic.co.uk/a558/a312/gallery/England/Dorset/maidencausewayed2.JPG","description":"Causewayed Enclosure in Dorset"},"Herringston Long Barrow":{"name":"Herringston Long Barrow","url":"https://megalithic.co.uk/article.php?sid=30253","category":"Neolithic and Bronze Age","latitude":"Latitude: 50.694749N","longitude":"Longitude: 2.446777W","imgurl":"https://megalithic.co.uk/a558/a312/gallery/England/Dorset/herringstonlong2.JPG","description":"Long Barrow in Dorset. A mutilated mound of over 60 m length which is partly crossed by a field boundary. Although this mound and the nearby bowl barrow are often referred to as one site called Herringston Barrrow, they are two different monuments. The long mound is probably a Neolithic long barrow."},"Herringston Bowl Barrow":{"name":"Herringston Bowl Barrow","url":"https://megalithic.co.uk/article.php?sid=30252","category":"Neolithic and Bronze Age","latitude":"Latitude: 50.694565N","longitude":"Longitude: 2.447767W","imgurl":"https://megalithic.co.uk/a558/a312/gallery/England/Dorset/herringstonbowl1.JPG","description":"Round Barrow in Dorset"},"Jacob's Well (Portland)":{"name":"Jacob's Well (Portland)","url":"https://megalithic.co.uk/article.php?sid=29792","category":"Springs and Holy Wells","latitude":"Latitude: 50.555891N","longitude":"Longitude: 2.448851W","imgurl":"https://megalithic.co.uk/a558/a312/gallery/England/Dorset/megportland.jpg","description":"This is a lovely spring lying just off a rough footpath leading south from Chesil Cove along the West Weares - listen out for the sound of water trickling left of the path. The water pours from beneath large boulders."},"St Catherine's Hill (Christchurch)":{"name":"St Catherine's Hill (Christchurch)","url":"https://megalithic.co.uk/article.php?sid=29822","category":"Neolithic and Bronze Age","latitude":"Latitude: 50.758921N","longitude":"Longitude: 1.798628W","imgurl":"https://megalithic.co.uk/a558/a312/gallery/England/Dorset/515096_403dba83.jpg","description":"St Catherine's Hill is a 35 hectare area of heathland and coniferous forest. It is the highest area of Christchurch and has most likely been used as a look-out and beacon since prehistoric times due to its commanding views of the surrounding area. Eleven tumuli or barrows surround the ridges as monuments to the succeeding Bronze age settlers and Iron Age farmers may have built the enclosure just to the south west of the radio mast. "},"St John's Well (Evershot)":{"name":"St John's Well (Evershot)","url":"https://megalithic.co.uk/article.php?sid=29791","category":"Springs and Holy Wells","latitude":"Latitude: 50.839300N","longitude":"Longitude: 2.609022W","imgurl":"https://megalithic.co.uk/a558/a312/gallery/England/Dorset/megevershot.jpg","description":"Holy Well or Sacred Spring in Dorset"},"Ashley Heath North":{"name":"Ashley Heath North","url":"https://megalithic.co.uk/article.php?sid=28811","category":"Neolithic and Bronze Age","latitude":"Latitude: 50.859706N","longitude":"Longitude: 1.843661W","imgurl":"https://megalithic.co.uk/a558/a312/gallery/England/Dorset/yt_DSC_0004a.jpg","description":"Round Barrow in Dorset, the most impressive of 5 local barrows. They are too loosely associated perhaps to be called a barrow cemetery, and occupy scarps that look both north west and south west. All are damaged by forestry work and each has a central depression from being dug out at some time in the past."},"Golden Cap Barrows":{"name":"Golden Cap Barrows","url":"https://megalithic.co.uk/article.php?sid=29230","category":"Neolithic and Bronze Age","latitude":"Latitude: 50.725556N","longitude":"Longitude: 2.843478W","imgurl":"https://megalithic.co.uk/a558/a312/gallery/England/Dorset/IMG_20201015_114858.jpg","description":"There are five Bronze Age burial mounds visible on the summit of Golden Cap, the highest point of the coast path through Dorset at 191m (626ft) above sea level. "},"Warren Hill Round Barrow 2":{"name":"Warren Hill Round Barrow 2","url":"https://megalithic.co.uk/article.php?sid=29178","category":"Neolithic and Bronze Age","latitude":"Latitude: 50.715575N","longitude":"Longitude: 1.760004W","imgurl":"https://megalithic.co.uk/a558/a312/gallery/England/Dorset/po_warrenhill.JPG","description":"Round Barrow(s) in Dorset"},"Dorset County Museum":{"name":"Dorset County Museum","url":"https://megalithic.co.uk/article.php?sid=6831","category":"Museums","latitude":"Latitude: 50.715102N","longitude":"Longitude: 2.439039W","imgurl":"https://megalithic.co.uk/a558/a312/gallery/England/Dorset/CountyMuseum.JPG","description":"Museum in Dorset. Prehistoric tools, displays on Maiden Castle, Maumbury. Mount Pleasant and other locations."},"Holt Heath":{"name":"Holt Heath","url":"https://megalithic.co.uk/article.php?sid=28864","category":"Neolithic and Bronze Age","latitude":"Latitude: 50.843599N","longitude":"Longitude: 1.923252W","imgurl":"https://megalithic.co.uk/a558/a312/gallery/England/Dorset/og_DSC_0011a.jpg","description":"Round Barrow(s) in Dorset"},"Roman Barrow, Knob's Crook":{"name":"Roman Barrow, Knob's Crook","url":"https://megalithic.co.uk/article.php?sid=28863","category":"Neolithic and Bronze Age","latitude":"Latitude: 50.865184N","longitude":"Longitude: 1.9289W","imgurl":"https://megalithic.co.uk/a558/a312/gallery/England/Dorset/kj_DSC_0018a.jpg","description":"Round Barrow(s) in Dorset"},"Colebarrow":{"name":"Colebarrow","url":"https://megalithic.co.uk/article.php?sid=28862","category":"Iron Age and Later Prehistory","latitude":"Latitude: 50.850809N","longitude":"Longitude: 1.954492W","imgurl":"https://megalithic.co.uk/a558/a312/gallery/England/Dorset/ze_DSC_0024a.jpg","description":"Hillfort in Dorset"},"David's Cross":{"name":"David's Cross","url":"https://megalithic.co.uk/article.php?sid=28847","category":"Neolithic and Bronze Age","latitude":"Latitude: 50.866072N","longitude":"Longitude: 1.911847W","imgurl":"https://megalithic.co.uk/a558/a312/gallery/England/Dorset/sr_DSC_0022.JPG","description":"Round Barrow(s) in Dorset"},"Woodlands Common Barrow":{"name":"Woodlands Common Barrow","url":"https://megalithic.co.uk/article.php?sid=28845","category":"Neolithic and Bronze Age","latitude":"Latitude: 50.879558N","longitude":"Longitude: 1.908979W","imgurl":"https://megalithic.co.uk/a558/a312/gallery/England/Dorset/jg_DSC_0019a.jpg","description":"Round Barrow(s) in Dorset"},"Redman's Hill Barrow":{"name":"Redman's Hill Barrow","url":"https://megalithic.co.uk/article.php?sid=28844","category":"Neolithic and Bronze Age","latitude":"Latitude: 50.866960N","longitude":"Longitude: 1.897635W","imgurl":"https://megalithic.co.uk/a558/a312/gallery/England/Dorset/mu_DSC_0017.JPG","description":"Round Barrow(s) in Dorset"},"Horton Common Earthworks":{"name":"Horton Common Earthworks","url":"https://megalithic.co.uk/article.php?sid=28833","category":"Multi-period","latitude":"Latitude: 50.864259N","longitude":"Longitude: 1.894799W","imgurl":"https://megalithic.co.uk/a558/a312/gallery/England/Dorset/yd_DSC_0009a.jpg","description":"Misc. Earthwork in Dorset"},"Trickett's Cross Barrow":{"name":"Trickett's Cross Barrow","url":"https://megalithic.co.uk/article.php?sid=28815","category":"Neolithic and Bronze Age","latitude":"Latitude: 50.805779N","longitude":"Longitude: 1.866547W","imgurl":"https://megalithic.co.uk/a558/a312/gallery/England/Dorset/hc_DSC_0009a.jpg","description":"Round Barrow(s) in Dorset"},"Knoll Down Tumulus":{"name":"Knoll Down Tumulus","url":"https://megalithic.co.uk/article.php?sid=28802","category":"Neolithic and Bronze Age","latitude":"Latitude: 50.968099N","longitude":"Longitude: 1.872008W","imgurl":"https://megalithic.co.uk/a558/a312/gallery/England/Dorset/wv_DSC_0025a.jpg","description":"Round Barrow in Dorset"},"Soldiers Ring (Dorset)":{"name":"Soldiers Ring (Dorset)","url":"https://megalithic.co.uk/article.php?sid=28801","category":"Multi-period","latitude":"Latitude: 50.957768N","longitude":"Longitude: 1.881775W","imgurl":"https://megalithic.co.uk/a558/a312/gallery/England/Dorset/rh_DSC_0013a.jpg","description":"Misc. Earthwork in Dorset"},"Lions Hill Enclosure":{"name":"Lions Hill Enclosure","url":"https://megalithic.co.uk/article.php?sid=28743","category":"Multi-period","latitude":"Latitude: 50.834542N","longitude":"Longitude: 1.855105W","imgurl":"https://megalithic.co.uk/a558/a312/gallery/England/Dorset/gp_DSC_0004a.jpg","description":"Earthwork in Dorset"},"Ralph's Barrow":{"name":"Ralph's Barrow","url":"https://megalithic.co.uk/article.php?sid=28738","category":"Neolithic and Bronze Age","latitude":"Latitude: 50.788707N","longitude":"Longitude: 1.879363W","imgurl":"https://megalithic.co.uk/a558/a312/gallery/England/Dorset/Ralphs_Barrow..JPG","description":"Round Barrow in Dorset"},"Dudsbury Hill Tumuli":{"name":"Dudsbury Hill Tumuli","url":"https://megalithic.co.uk/article.php?sid=28736","category":"Neolithic and Bronze Age","latitude":"Latitude: 50.786028N","longitude":"Longitude: 1.89923W","imgurl":"https://megalithic.co.uk/a558/a312/gallery/England/Dorset/ta_DSCF0027.JPG","description":"Round Barrows in Dorset"},"Fern Barrow":{"name":"Fern Barrow","url":"https://megalithic.co.uk/article.php?sid=28735","category":"Neolithic and Bronze Age","latitude":"Latitude: 50.732976N","longitude":"Longitude: 1.903595W","imgurl":"https://megalithic.co.uk/a558/a312/gallery/England/Dorset/fs_DSCF0025.JPG","description":"Round Barrow in Dorset"},"Ferndown Town Common":{"name":"Ferndown Town Common","url":"https://megalithic.co.uk/article.php?sid=28717","category":"Neolithic and Bronze Age","latitude":"Latitude: 50.793228N","longitude":"Longitude: 1.906309W","imgurl":"https://megalithic.co.uk/a558/a312/gallery/England/Dorset/ao_DSCF0005.JPG","description":"Round Barrow(s) in Dorset"},"Boveridge Heath":{"name":"Boveridge Heath","url":"https://megalithic.co.uk/article.php?sid=28700","category":"Neolithic and Bronze Age","latitude":"Latitude: 50.892110N","longitude":"Longitude: 1.869145W","imgurl":"https://megalithic.co.uk/a558/a312/gallery/England/Dorset/ea_DSCF0012.JPG","description":"Boveridge Heath (which is the northern end of Ringwood Forest) has a good many tumuli but most are sadly in an atrocious condition, largely due to forestry work. Some have been quite levelled to the ground, their only indication of presence being monument 'M' marker posts in each corner, as indeed they all have. If this is the only good thing to have come out of the operations then it is good indeed, as the levelling has otherwise diminished the sites to near invisibility in the scrub.  "},"Stephen's Castle Tumulus":{"name":"Stephen's Castle Tumulus","url":"https://megalithic.co.uk/article.php?sid=28699","category":"Neolithic and Bronze Age","latitude":"Latitude: 50.886718N","longitude":"Longitude: 1.872003W","imgurl":"https://megalithic.co.uk/a558/a312/gallery/England/Dorset/yr_DSCF0001.JPG","description":"Round Barrow(s) in Dorset"},"Ramsdown Plantation / Sopley Common":{"name":"Ramsdown Plantation / Sopley Common","url":"https://megalithic.co.uk/article.php?sid=28696","category":"Neolithic and Bronze Age","latitude":"Latitude: 50.771536N","longitude":"Longitude: 1.814174W","imgurl":"https://megalithic.co.uk/a558/a312/gallery/England/Dorset/rs_DSCF0005.JPG","description":"Round Barrow(s) in Dorset"},"Sopley Common Tumulus":{"name":"Sopley Common Tumulus","url":"https://megalithic.co.uk/article.php?sid=28695","category":"Neolithic and Bronze Age","latitude":"Latitude: 50.774234N","longitude":"Longitude: 1.814163W","imgurl":"https://megalithic.co.uk/a558/a312/gallery/England/Dorset/fn_DSCF0008.JPG","description":"Round Barrow(s) in Dorset"},"Hurn Forest Barrow":{"name":"Hurn Forest Barrow","url":"https://megalithic.co.uk/article.php?sid=28694","category":"Neolithic and Bronze Age","latitude":"Latitude: 50.793138N","longitude":"Longitude: 1.826857W","imgurl":"https://megalithic.co.uk/a558/a312/gallery/England/Dorset/bn_DSCF0002.JPG","description":"Round Barrow(s) in Dorset"},"Barnsfield Heath (North)":{"name":"Barnsfield Heath (North)","url":"https://megalithic.co.uk/article.php?sid=28692","category":"Neolithic and Bronze Age","latitude":"Latitude: 50.817409N","longitude":"Longitude: 1.82109W","imgurl":"https://megalithic.co.uk/a558/a312/gallery/England/Dorset/la_DSCF0008.JPG","description":"Round Barrow(s) in Dorset."},"Dudsbury Camp":{"name":"Dudsbury Camp","url":"https://megalithic.co.uk/article.php?sid=4674","category":"Iron Age and Later Prehistory","latitude":"Latitude: 50.780627N","longitude":"Longitude: 1.89215W","imgurl":"https://megalithic.co.uk/a558/a312/gallery/England/Dorset/PIC00755.jpg","description":"Hillfort in Dorset. This is a form of promontory hillfort which is above a bend in the river Stour. The most substantial earthworks are two sets of banks and ditches north of the interior. These are visible from the public footpath but are on private land."},"Bokerley Dyke":{"name":"Bokerley Dyke","url":"https://megalithic.co.uk/article.php?sid=4647","category":"Multi-period","latitude":"Latitude: 50.970407N","longitude":"Longitude: 1.951527W","imgurl":"https://megalithic.co.uk/a558/a312/gallery/England/Hampshire/Bokerley_Ditch_11.03_02.jpg","description":"Linear Earthwork in Dorset"},"Double Dykes Bowl Barrow":{"name":"Double Dykes Bowl Barrow","url":"https://megalithic.co.uk/article.php?sid=26956","category":"Neolithic and Bronze Age","latitude":"Latitude: 50.718573N","longitude":"Longitude: 1.766221W","imgurl":"https://megalithic.co.uk/a558/a312/gallery/England/Dorset/doubledykesbowl1.JPG","description":"Bronze age bowl barrow in Dorset"},"Hambledon Hill hillfort":{"name":"Hambledon Hill hillfort","url":"https://megalithic.co.uk/article.php?sid=4639","category":"Iron Age and Later Prehistory","latitude":"Latitude: 50.913554N","longitude":"Longitude: 2.221706W","imgurl":"https://megalithic.co.uk/a558/a312/gallery/England/Dorset/hambledon.jpg","description":"Iron Age Hillfort in Dorset. One of the best hillforts in Britain. "},"Upwey Ridgeway":{"name":"Upwey Ridgeway","url":"https://megalithic.co.uk/article.php?sid=4672","category":"Neolithic and Bronze Age","latitude":"Latitude: 50.677986N","longitude":"Longitude: 2.478463W","imgurl":"https://megalithic.co.uk/a558/a312/gallery/England/Dorset/UpweyRidgeBarr.JPG","description":"Barrow Cemetery in Dorset"},"The Ulwell Barrow":{"name":"The Ulwell Barrow","url":"https://megalithic.co.uk/article.php?sid=26380","category":"Neolithic and Bronze Age","latitude":"Latitude: 50.631484N","longitude":"Longitude: 1.969973W","imgurl":"https://megalithic.co.uk/a558/a312/gallery/England/Dorset/obelisk_barrow_panorama_megalithic_800.jpg","description":"A round barrow on the Ballard Down ridge, similar to others on the ridge except that this one has an obelisk erected on its southern side. "},"Long Bredy A Cursus":{"name":"Long Bredy A Cursus","url":"https://megalithic.co.uk/article.php?sid=25429","category":"Neolithic and Bronze Age","latitude":"Latitude: 50.719216N","longitude":"Longitude: 2.604673W","imgurl":"https://megalithic.co.uk/a558/a312/gallery/England/Dorset/Full_page_photo_cursus_01.jpg","description":"Cursus in Dorset"},"East Hill field System":{"name":"East Hill field System","url":"https://megalithic.co.uk/article.php?sid=24479","category":"Multi-period","latitude":"Latitude: 50.834930N","longitude":"Longitude: 2.494835W","imgurl":"https://megalithic.co.uk/a558/a312/gallery/England/Dorset/20161228_151621.jpg","description":"Misc. Earthwork in Dorset"},"Parley Barrow":{"name":"Parley Barrow","url":"https://megalithic.co.uk/article.php?sid=23585","category":"Neolithic and Bronze Age","latitude":"Latitude: 50.787368N","longitude":"Longitude: 1.889297W","imgurl":"https://megalithic.co.uk/a558/a312/gallery/England/Dorset/ov_DSCF0046.JPG","description":"Bowl Barrow in Dorset"},"Doghouse Hill":{"name":"Doghouse Hill","url":"https://megalithic.co.uk/article.php?sid=23046","category":"Multi-period","latitude":"Latitude: 50.720316N","longitude":"Longitude: 2.808819W","imgurl":"https://megalithic.co.uk/a558/a312/gallery/England/Dorset/IMG_20201015_114251_2.jpg","description":"Ancient Settlement in Dorset. Archaeologists working for the National Trust think they have found West Dorset's oldest human settlement.\r\nExcavations over the last two weeks began when a number of artefacts were found by a man walking his dog."},"Lambert's Castle":{"name":"Lambert's Castle","url":"https://megalithic.co.uk/article.php?sid=4665","category":"Events","latitude":"Latitude: 50.788053N","longitude":"Longitude: 2.89227W","imgurl":"https://megalithic.co.uk/a558/a312/gallery/England/Dorset/Lamberts_Castle2.jpg","description":"Hillfort in Dorset."},"Bottlebush Down barrows":{"name":"Bottlebush Down barrows","url":"https://megalithic.co.uk/article.php?sid=22521","category":"Neolithic and Bronze Age","latitude":"Latitude: 50.945686N","longitude":"Longitude: 1.981729W","imgurl":"https://megalithic.co.uk/a558/a312/gallery/England/Dorset/20051221_143046.JPG","description":"Barrow Cemetery in Dorset"},"Three Barrows (Furzebrook)":{"name":"Three Barrows (Furzebrook)","url":"https://megalithic.co.uk/article.php?sid=22088","category":"Neolithic and Bronze Age","latitude":"Latitude: 50.659242N","longitude":"Longitude: 2.087661W","imgurl":"https://megalithic.co.uk/a558/a312/gallery/England/Dorset/069.jpg","description":"Barrow Cemetery in Dorset. Three barrows fenced off from nearby farmland with a telephone pole planted smack in the middle of them. Rabbits have dug into them but not disastrously so."},"The Bearstone":{"name":"The Bearstone","url":"https://megalithic.co.uk/article.php?sid=19159","category":"Neolithic and Bronze Age","latitude":"Latitude: 50.793264N","longitude":"Longitude: 2.02123W","imgurl":"https://megalithic.co.uk/a558/a312/gallery/England/Dorset/MN795.JPG","description":"We managed to get this fine limestone monolith raised on the 7th Aug 2008. We found it fallen and under vegetation, excavated, measured it and calculated the weight (about 1,000 kg). \r\nIt has a flat bottom and pointed apex, like a thick triangle, sits very comfortably. The county archeologist came to see it and gave me permission to lift it. "},"High Lea Farm":{"name":"High Lea Farm","url":"https://megalithic.co.uk/article.php?sid=19505","category":"Neolithic and Bronze Age","latitude":"Latitude: 50.854415N","longitude":"Longitude: 2.00279W","imgurl":"https://megalithic.co.uk/a558/a312/gallery/England/Dorset/barrow_panorama.jpg","description":"Barrow Cemetery in Dorset \r\nThis group comprises a barrow cemetery composed of round barrows and oval barrows. Only a small number of the barrows are visible as earthworks, the remainder are visible as cropmarks on aerial photographs. ["},"Swyre Head":{"name":"Swyre Head","url":"https://megalithic.co.uk/article.php?sid=19000","category":"Neolithic and Bronze Age","latitude":"Latitude: 50.605729N","longitude":"Longitude: 2.094486W","imgurl":"https://megalithic.co.uk/a558/a312/gallery/England/Dorset/swyre_head_2.JPG","description":"This bowl barrow is the highest point in the Isle of Purbeck, on Swyre Head (not to be confused with the other Dorset Swyre Head on the coast to the west of Durdle Door). On a clear day there are fantastic views for many miles in all directions."},"The King Barrow (Isle of Purbeck)":{"name":"The King Barrow (Isle of Purbeck)","url":"https://megalithic.co.uk/article.php?sid=18833","category":"Neolithic and Bronze Age","latitude":"Latitude: 50.637765N","longitude":"Longitude: 1.936172W","imgurl":"https://megalithic.co.uk/a558/a312/gallery/England/Dorset/the_king_barrow_studland.JPG","description":"Bowl barrow 16 metres in diameter and up to 1 metre high."},"Ballard Down":{"name":"Ballard Down","url":"https://megalithic.co.uk/article.php?sid=18834","category":"Neolithic and Bronze Age","latitude":"Latitude: 50.631385N","longitude":"Longitude: 1.945088W","imgurl":"https://megalithic.co.uk/a558/a312/gallery/England/Dorset/ballard_down_05.JPG","description":"Round Barrows in Dorset\r\n"},"St. Edward the Martyr's Well":{"name":"St. Edward the Martyr's Well","url":"https://megalithic.co.uk/article.php?sid=18584","category":"Springs and Holy Wells","latitude":"Latitude: 50.640528N","longitude":"Longitude: 2.058636W","imgurl":"https://megalithic.co.uk/a558/a312/gallery/England/Dorset/Corfe_castle_well.jpg","description":"Within the ruins of Corfe Castle is a deep impression said to be the location of the well where the body of the murdered Saxon king was thrown down in 978 before the Castle was built. "},"Leper's Well (Lyme Regis)":{"name":"Leper's Well (Lyme Regis)","url":"https://megalithic.co.uk/article.php?sid=18577","category":"Springs and Holy Wells","latitude":"Latitude: 50.725885N","longitude":"Longitude: 2.934838W","imgurl":"https://megalithic.co.uk/a558/a312/gallery/England/Dorset/Leper_well2.jpg","description":"This interesting site tucked away in a public park behind the main street is believed associated with a leper hospital although its waters were said to be efficiacous with other complaints and considered holy. "},"Leigh Miz Maze":{"name":"Leigh Miz Maze","url":"https://megalithic.co.uk/article.php?sid=18507","category":"Multi-period","latitude":"Latitude: 50.870177N","longitude":"Longitude: 2.555606W","imgurl":"https://megalithic.co.uk/a558/a312/gallery/England/Dorset/Leigh_Miz_Maze.jpg","description":"Turf Maze in Dorset"},"Four Barrow Hill":{"name":"Four Barrow Hill","url":"https://megalithic.co.uk/article.php?sid=18247","category":"Neolithic and Bronze Age","latitude":"Latitude: 50.690595N","longitude":"Longitude: 2.495438W","imgurl":"https://megalithic.co.uk/a558/a312/gallery/England/Dorset/PIC00424.jpg","description":"According the great L.V.Grinsell this is the only examle of a quadruple barrow in the British Isles. "},"Chaldon Down":{"name":"Chaldon Down","url":"https://megalithic.co.uk/article.php?sid=18234","category":"Neolithic and Bronze Age","latitude":"Latitude: 50.630090N","longitude":"Longitude: 2.30817W","imgurl":"https://megalithic.co.uk/a558/a312/gallery/England/Dorset/chaldon_down02.jpg","description":"Barrow Cemetery in Dorset"},"Wardstone Barrow":{"name":"Wardstone Barrow","url":"https://megalithic.co.uk/article.php?sid=18229","category":"Neolithic and Bronze Age","latitude":"Latitude: 50.631297N","longitude":"Longitude: 2.293615W","imgurl":"https://megalithic.co.uk/a558/a312/gallery/England/Dorset/wardstone_barrow01.jpg","description":"Round Barrows in Dorset"},"Scrubbity Barrows":{"name":"Scrubbity Barrows","url":"https://megalithic.co.uk/article.php?sid=18199","category":"Neolithic and Bronze Age","latitude":"Latitude: 50.960428N","longitude":"Longitude: 2.041241W","imgurl":"https://megalithic.co.uk/a558/a312/gallery/England/Dorset/MVC-023F-Scrubbity.jpg","description":"Barrow Cemetery in Dorset"},"Hambledon Hill enclosure long barrow":{"name":"Hambledon Hill enclosure long barrow","url":"https://megalithic.co.uk/article.php?sid=17928","category":"Neolithic and Bronze Age","latitude":"Latitude: 50.907719N","longitude":"Longitude: 2.216274W","imgurl":"https://megalithic.co.uk/a558/a312/gallery/England/Dorset/hambledon_hill_enclosure_barrow02.jpg","description":"Reconstructed Long Barrow in Dorset"},"Hambledon Hill enclosure":{"name":"Hambledon Hill enclosure","url":"https://megalithic.co.uk/article.php?sid=17927","category":"Neolithic and Bronze Age","latitude":"Latitude: 50.909065N","longitude":"Longitude: 2.21756W","imgurl":"https://megalithic.co.uk/a558/a312/gallery/England/Dorset/thumb/hambledon_hill_enclosure_barrow01.jpg","description":""},"Nine Stones (Dorset)":{"name":"Nine Stones (Dorset)","url":"https://megalithic.co.uk/article.php?sid=127","category":"Neolithic and Bronze Age","latitude":"Latitude: 50.712190N","longitude":"Longitude: 2.552602W","imgurl":"https://megalithic.co.uk/a558/a312/gallery/England/Dorset/winterbourne_nine_stones01.jpg","description":"This small circle has some huge stones and some tiny ones, ranging from 90cm to 3.4m. Trees have grown up around the circle almost obscuring it, giving a dark, melancholy air. "},"Woodman's Cross":{"name":"Woodman's Cross","url":"https://megalithic.co.uk/article.php?sid=17101","category":"Neolithic and Bronze Age","latitude":"Latitude: 50.671035N","longitude":"Longitude: 2.216033W","imgurl":"https://megalithic.co.uk/a558/a312/gallery/England/Dorset/DSCN3427.JPG","description":"Barrow Cemetery in Dorset"},"Blacknoll Hill":{"name":"Blacknoll Hill","url":"https://megalithic.co.uk/article.php?sid=17099","category":"Neolithic and Bronze Age","latitude":"Latitude: 50.676035N","longitude":"Longitude: 2.275496W","imgurl":"https://megalithic.co.uk/a558/a312/gallery/England/Dorset/XBlacknollHill02.jpg","description":"Barrow Cemetery in Dorset"},"Rainbarrows":{"name":"Rainbarrows","url":"https://megalithic.co.uk/article.php?sid=16545","category":"Neolithic and Bronze Age","latitude":"Latitude: 50.727010N","longitude":"Longitude: 2.376812W","imgurl":"https://megalithic.co.uk/a558/a312/gallery/England/Dorset/P4089287.JPG","description":"Round Barrows in Dorset.\r\n\r\nThe Rainbarrows are three bowl barrows at the top of Duddle Heath on the edge of Puddletown Forest. They were partly excavated by Edward Cunnington in 1887 and the discovered urns containing cremations are now in the Dorset County Museum.\r\n"},"Eggardon earthwork":{"name":"Eggardon earthwork","url":"https://megalithic.co.uk/article.php?sid=16087","category":"Neolithic and Bronze Age","latitude":"Latitude: 50.749216N","longitude":"Longitude: 2.64489W","imgurl":"https://megalithic.co.uk/a558/a312/gallery/England/Dorset/Eggardon_Henge_1_01.jpg","description":"Circular earthwork in Dorset - interpreted as either a henge or disc barrow."},"Bind Barrow":{"name":"Bind Barrow","url":"https://megalithic.co.uk/article.php?sid=16083","category":"Neolithic and Bronze Age","latitude":"Latitude: 50.696632N","longitude":"Longitude: 2.717794W","imgurl":"https://megalithic.co.uk/a558/a312/gallery/England/Dorset/Bind_barrow02.jpg","description":"Round Barrow in Dorset"},"Southdown (Dorset)":{"name":"Southdown (Dorset)","url":"https://megalithic.co.uk/article.php?sid=15631","category":"Neolithic and Bronze Age","latitude":"Latitude: 50.641643N","longitude":"Longitude: 2.356329W","imgurl":"https://megalithic.co.uk/a558/a312/gallery/England/Dorset/ringstead02.jpg","description":"Barrow Cemetery in Dorset. Another Dorset Bronze Age barrow cemetery in a chalk-ridge setting, akin to the nearby "},"St Mary's Well (Hermitage)":{"name":"St Mary's Well (Hermitage)","url":"https://megalithic.co.uk/article.php?sid=15516","category":"Springs and Holy Wells","latitude":"Latitude: 50.840766N","longitude":"Longitude: 2.497027W","imgurl":"https://megalithic.co.uk/a558/a312/gallery/England/Dorset/AAAED.JPG","description":"Holy Well or Sacred Spring in Dorset"},"Afflington Barrow":{"name":"Afflington Barrow","url":"https://megalithic.co.uk/article.php?sid=15120","category":"Neolithic and Bronze Age","latitude":"Latitude: 50.608906N","longitude":"Longitude: 2.045736W","imgurl":"https://megalithic.co.uk/a558/a312/gallery/England/Dorset/afflington_barrow01.jpg","description":"The Afflington Barrow is a bronze age bowl barrow about 22 metres in diameter and nearly 2 metres in height. Its surrounding ditch has become infilled. "},"Fontmell Down":{"name":"Fontmell Down","url":"https://megalithic.co.uk/article.php?sid=14701","category":"Multi-period","latitude":"Latitude: 50.964003N","longitude":"Longitude: 2.166554W","imgurl":"https://megalithic.co.uk/a558/a312/gallery/England/Dorset/XFontmell01.JPG","description":"Misc. Earthwork in Dorset"},"Bakers Dozen":{"name":"Bakers Dozen","url":"https://megalithic.co.uk/article.php?sid=12900","category":"Modern Sites","latitude":"Latitude: 50.821142N","longitude":"Longitude: 1.990011W","imgurl":"https://megalithic.co.uk/a558/a312/gallery/Modern_Stone_Circles/baker5.jpg","description":"Modern Stone Circle in Dorset"},"Wareham Walls":{"name":"Wareham Walls","url":"https://megalithic.co.uk/article.php?sid=12298","category":"Multi-period","latitude":"Latitude: 50.688899N","longitude":"Longitude: 2.110367W","imgurl":"https://megalithic.co.uk/a558/a312/gallery/England/Dorset/WarehamWallsWOutside.JPG","description":"Misc. Earthwork in Dorset"},"Agglestone":{"name":"Agglestone","url":"https://megalithic.co.uk/article.php?sid=12260","category":"Natural Places","latitude":"Latitude: 50.645116N","longitude":"Longitude: 1.96797W","imgurl":"https://megalithic.co.uk/a558/a312/gallery/England/Dorset/Xagglestonegroup.jpg","description":"Natural Stone / Glacial Erratic in Dorset"},"Puckstone":{"name":"Puckstone","url":"https://megalithic.co.uk/article.php?sid=12259","category":"Natural Places","latitude":"Latitude: 50.647581N","longitude":"Longitude: 1.97166W","imgurl":"https://megalithic.co.uk/a558/a312/gallery/England/Dorset/XPuckstonetoAgglestone.jpg","description":"Natural Stone / Glacial Erratic in Dorset"},"Studland":{"name":"Studland","url":"https://megalithic.co.uk/article.php?sid=12258","category":"Neolithic and Bronze Age","latitude":"Latitude: 50.667363N","longitude":"Longitude: 1.964573W","imgurl":"https://megalithic.co.uk/a558/a312/gallery/England/Dorset/XstudlandStoneRow.jpg","description":"A stone row of at least 6 stones, but most very difficult to find."},"Black Down Barrows (Dorset)":{"name":"Black Down Barrows (Dorset)","url":"https://megalithic.co.uk/article.php?sid=12191","category":"Neolithic and Bronze Age","latitude":"Latitude: 50.689394N","longitude":"Longitude: 2.561961W","imgurl":"https://megalithic.co.uk/a558/a312/gallery/England/Dorset/BlackDownBarrows.jpg","description":"Barrow Cemetery in Dorset"},"Maiden Castle Barrow Cemetery":{"name":"Maiden Castle Barrow Cemetery","url":"https://megalithic.co.uk/article.php?sid=12190","category":"Neolithic and Bronze Age","latitude":"Latitude: 50.701474N","longitude":"Longitude: 2.474312W","imgurl":"https://megalithic.co.uk/a558/a312/gallery/England/Dorset/maiden_barrow.jpg","description":"This Bronze Age barrow cemetery, located about 500m north of Maiden Castle, is grouped around the site of a neolithic long barrow which has long since been ploughed flat. "},"Mistlebury":{"name":"Mistlebury","url":"https://megalithic.co.uk/article.php?sid=12143","category":"Iron Age and Later Prehistory","latitude":"Latitude: 50.974733N","longitude":"Longitude: 2.007355W","imgurl":"https://megalithic.co.uk/a558/a312/gallery/England/Dorset/mistlebury02.JPG","description":"Hillfort in Dorset"},"Caesar's Camp (Dorset)":{"name":"Caesar's Camp (Dorset)","url":"https://megalithic.co.uk/article.php?sid=12142","category":"Iron Age and Later Prehistory","latitude":"Latitude: 50.939799N","longitude":"Longitude: 2.100999W","imgurl":"https://megalithic.co.uk/a558/a312/gallery/England/Dorset/uo_DSC_0037a.jpg","description":"Caesar's Camp is a univallate Iron Age hill fort crowning Bussey Down before it slopes steeply to the west; the eastern slope is less severe. It takes its name no doubt from its close proximity to the Badbury Rings - Bath, Roman road ( Margary 46 ) which also crosses Bussey Down to the west of the site."},"Weatherby Castle":{"name":"Weatherby Castle","url":"https://megalithic.co.uk/article.php?sid=12141","category":"Iron Age and Later Prehistory","latitude":"Latitude: 50.765064N","longitude":"Longitude: 2.275026W","imgurl":"https://megalithic.co.uk/a558/a312/gallery/England/Dorset/P3130031.jpg","description":"Hillfort in Dorset"},"Woodbury Hill (Dorset)":{"name":"Woodbury Hill (Dorset)","url":"https://megalithic.co.uk/article.php?sid=11620","category":"Iron Age and Later Prehistory","latitude":"Latitude: 50.752618N","longitude":"Longitude: 2.205493W","imgurl":"https://megalithic.co.uk/a558/a312/gallery/England/Dorset/woodbury01.jpg","description":"Hillfort in Dorset"},"Came Down":{"name":"Came Down","url":"https://megalithic.co.uk/article.php?sid=11535","category":"Neolithic and Bronze Age","latitude":"Latitude: 50.675514N","longitude":"Longitude: 2.44433W","imgurl":"https://megalithic.co.uk/a558/a312/gallery/England/Dorset/XCameDown02.JPG","description":"Barrow Cemetery in Dorset"},"Eweleaze Barn":{"name":"Eweleaze Barn","url":"https://megalithic.co.uk/article.php?sid=11529","category":"Neolithic and Bronze Age","latitude":"Latitude: 50.686980N","longitude":"Longitude: 2.499646W","imgurl":"https://megalithic.co.uk/a558/a312/gallery/England/Dorset/EweleazeBarn02.JPG","description":"Barrow Cemetery in Dorset"},"Ridge Hill":{"name":"Ridge Hill","url":"https://megalithic.co.uk/article.php?sid=11528","category":"Neolithic and Bronze Age","latitude":"Latitude: 50.678887N","longitude":"Longitude: 2.49956W","imgurl":"https://megalithic.co.uk/a558/a312/gallery/England/Dorset/RidgeHill01.JPG","description":"Barrow Cemetery in Dorset"},"Great Hill (Martinstown)":{"name":"Great Hill (Martinstown)","url":"https://megalithic.co.uk/article.php?sid=11527","category":"Neolithic and Bronze Age","latitude":"Latitude: 50.679725N","longitude":"Longitude: 2.513723W","imgurl":"https://megalithic.co.uk/a558/a312/gallery/England/Dorset/GreatHill01.JPG","description":"Barrow Cemetery in Dorset"},"Pitcombe Down":{"name":"Pitcombe Down","url":"https://megalithic.co.uk/article.php?sid=11526","category":"Neolithic and Bronze Age","latitude":"Latitude: 50.709958N","longitude":"Longitude: 2.586284W","imgurl":"https://megalithic.co.uk/a558/a312/gallery/England/Dorset/PitcombeDownW.JPG","description":"Barrow Cemetery in Dorset"},"Big Wood":{"name":"Big Wood","url":"https://megalithic.co.uk/article.php?sid=11525","category":"Neolithic and Bronze Age","latitude":"Latitude: 50.703795N","longitude":"Longitude: 2.559301W","imgurl":"https://megalithic.co.uk/a558/a312/gallery/England/Dorset/WoodBigDistantBarrows.JPG","description":"Barrow Cemetery in Dorset"},"Smitten Corner":{"name":"Smitten Corner","url":"https://megalithic.co.uk/article.php?sid=11523","category":"Neolithic and Bronze Age","latitude":"Latitude: 50.687683N","longitude":"Longitude: 2.543538W","imgurl":"https://megalithic.co.uk/a558/a312/gallery/England/Dorset/SmittenCorner.JPG","description":"Barrow Cemetery in Dorset"},"Holdenhurst Long Barrow":{"name":"Holdenhurst Long Barrow","url":"https://megalithic.co.uk/article.php?sid=11429","category":"Neolithic and Bronze Age","latitude":"Latitude: 50.750887N","longitude":"Longitude: 1.836935W","imgurl":"https://megalithic.co.uk/a558/a312/gallery/England/Dorset/holdenhurst.jpg","description":"Destroyed earthen long barrow in Dorset"},"Winterbourne Steepleton 1":{"name":"Winterbourne Steepleton 1","url":"https://megalithic.co.uk/article.php?sid=11428","category":"Neolithic and Bronze Age","latitude":"Latitude: 50.693541N","longitude":"Longitude: 2.561628W","imgurl":"https://megalithic.co.uk/a558/a312/gallery/England/Dorset/xpi_IMG_3947.JPG","description":"Long Barrow in Dorset"},"Longlands barrow cemetery":{"name":"Longlands barrow cemetery","url":"https://megalithic.co.uk/article.php?sid=11427","category":"Neolithic and Bronze Age","latitude":"Latitude: 50.708278N","longitude":"Longitude: 2.562187W","imgurl":"https://megalithic.co.uk/a558/a312/gallery/England/Dorset/longlands01.jpg","description":"Barrow Cemetery in Dorset"},"Bradford Peverell 2":{"name":"Bradford Peverell 2","url":"https://megalithic.co.uk/article.php?sid=11425","category":"Neolithic and Bronze Age","latitude":"Latitude: 50.725771N","longitude":"Longitude: 2.470307W","imgurl":"https://megalithic.co.uk/a558/a312/gallery/England/Dorset/barton_p01.jpg","description":"Long Barrow in Dorset"},"Seven Barrow Plantation":{"name":"Seven Barrow Plantation","url":"https://megalithic.co.uk/article.php?sid=11426","category":"Neolithic and Bronze Age","latitude":"Latitude: 50.730137N","longitude":"Longitude: 2.501522W","imgurl":"https://megalithic.co.uk/a558/a312/gallery/England/Dorset/seven_barrow_plantation.JPG","description":"Barrow Cemetery in Dorset"},"Broadmayne Bank Barrow":{"name":"Broadmayne Bank Barrow","url":"https://megalithic.co.uk/article.php?sid=11421","category":"Neolithic and Bronze Age","latitude":"Latitude: 50.666600N","longitude":"Longitude: 2.423022W","imgurl":"https://megalithic.co.uk/a558/a312/gallery/England/Dorset/CameDownBankBarrow.jpg","description":"Bank Barrow in Dorset"},"Lady St Mary (Wareham)":{"name":"Lady St Mary (Wareham)","url":"https://megalithic.co.uk/article.php?sid=11378","category":"Early Medieval (Dark Age)","latitude":"Latitude: 50.684405N","longitude":"Longitude: 2.107525W","imgurl":"https://megalithic.co.uk/a558/a312/gallery/England/Dorset/LSM08.JPG","description":"Ancient Cross in Dorset"},"Maiden Castle Bank Barrow":{"name":"Maiden Castle Bank Barrow","url":"https://megalithic.co.uk/article.php?sid=11362","category":"Neolithic and Bronze Age","latitude":"Latitude: 50.695198N","longitude":"Longitude: 2.469718W","imgurl":"https://megalithic.co.uk/a558/a312/gallery/England/Dorset/P8090083.jpg","description":"Britain's longest long barrow, uniquely long at 546 metres, running over the neolithic causewayed camp on top of Maiden Castle. The details of its structure suggest that it was originally a more conventional long barrow that was extended in both directions. "},"Whitcombe 1":{"name":"Whitcombe 1","url":"https://megalithic.co.uk/article.php?sid=11361","category":"Neolithic and Bronze Age","latitude":"Latitude: 50.671081N","longitude":"Longitude: 2.427307W","imgurl":"https://megalithic.co.uk/a558/a312/gallery/England/Dorset/whitcombe_long_barrow01.jpg","description":"Long Barrow in Dorset"},"Kingston Russell 2":{"name":"Kingston Russell 2","url":"https://megalithic.co.uk/article.php?sid=11337","category":"Neolithic and Bronze Age","latitude":"Latitude: 50.711706N","longitude":"Longitude: 2.59622W","imgurl":"https://megalithic.co.uk/a558/a312/gallery/England/Dorset/blackdown_long_barrow02.jpg","description":"Bank Barrow in Dorset"},"Kingston Russell 1":{"name":"Kingston Russell 1","url":"https://megalithic.co.uk/article.php?sid=11336","category":"Neolithic and Bronze Age","latitude":"Latitude: 50.712605N","longitude":"Longitude: 2.596231W","imgurl":"https://megalithic.co.uk/a558/a312/gallery/England/Dorset/kingston_russell_bank1_01.jpg","description":"Bank Barrow in Dorset"},"Long Bredy 2":{"name":"Long Bredy 2","url":"https://megalithic.co.uk/article.php?sid=11335","category":"Neolithic and Bronze Age","latitude":"Latitude: 50.716151N","longitude":"Longitude: 2.606192W","imgurl":"https://megalithic.co.uk/a558/a312/gallery/England/Dorset/long_bredy2_01.jpg","description":"Long Barrow in Dorset"},"Blagdon Hill tumuli":{"name":"Blagdon Hill tumuli","url":"https://megalithic.co.uk/article.php?sid=11330","category":"Neolithic and Bronze Age","latitude":"Latitude: 50.962299N","longitude":"Longitude: 1.924481W","imgurl":"https://megalithic.co.uk/a558/a312/gallery/England/Dorset/horse_tumuli.jpg","description":"Round Barrow(s) in Dorset"},"Grove Road":{"name":"Grove Road","url":"https://megalithic.co.uk/article.php?sid=11315","category":"Neolithic and Bronze Age","latitude":"Latitude: 50.549701N","longitude":"Longitude: 2.420563W","imgurl":"https://megalithic.co.uk/a558/a312/gallery/England/Dorset/PortlandPossCirc01.JPG","description":"Possible Stone Circle in Dorset. On a  "},"Parsonage Hill":{"name":"Parsonage Hill","url":"https://megalithic.co.uk/article.php?sid=11326","category":"Neolithic and Bronze Age","latitude":"Latitude: 50.901802N","longitude":"Longitude: 2.027964W","imgurl":"https://megalithic.co.uk/a558/a312/gallery/England/Dorset/parsonage_hill_panorama01.jpg","description":"Probable Long Barrow in Dorset"},"Penbury Knoll":{"name":"Penbury Knoll","url":"https://megalithic.co.uk/article.php?sid=11325","category":"Iron Age and Later Prehistory","latitude":"Latitude: 50.953319N","longitude":"Longitude: 1.94585W","imgurl":"https://megalithic.co.uk/a558/a312/gallery/England/Dorset/penbury_knoll03.jpg","description":"Hillfort in Dorset"},"Drive Plantation":{"name":"Drive Plantation","url":"https://megalithic.co.uk/article.php?sid=11323","category":"Neolithic and Bronze Age","latitude":"Latitude: 50.931748N","longitude":"Longitude: 1.98145W","imgurl":"https://megalithic.co.uk/a558/a312/gallery/England/Dorset/DPBarrow1.jpg","description":"Long Barrow in Dorset"},"Chettle Long Barrow":{"name":"Chettle Long Barrow","url":"https://megalithic.co.uk/article.php?sid=11320","category":"Neolithic and Bronze Age","latitude":"Latitude: 50.920923N","longitude":"Longitude: 2.090999W","imgurl":"https://megalithic.co.uk/a558/a312/gallery/England/Dorset/chettle_long_barrow.jpg","description":"Long Barrow in Dorset"},"Chettle House":{"name":"Chettle House","url":"https://megalithic.co.uk/article.php?sid=11319","category":"Neolithic and Bronze Age","latitude":"Latitude: 50.914669N","longitude":"Longitude: 2.071556W","imgurl":"https://megalithic.co.uk/a558/a312/gallery/England/Dorset/PIC00898.jpg","description":"Long Barrow in Dorset"},"Thickthorn Down (South)":{"name":"Thickthorn Down (South)","url":"https://megalithic.co.uk/article.php?sid=11318","category":"Neolithic and Bronze Age","latitude":"Latitude: 50.909261N","longitude":"Longitude: 2.042618W","imgurl":"https://megalithic.co.uk/a558/a312/gallery/England/Dorset/thickthorn_down_south01.jpg","description":"Long Barrow in Dorset"},"Pentridge 4":{"name":"Pentridge 4","url":"https://megalithic.co.uk/article.php?sid=11181","category":"Neolithic and Bronze Age","latitude":"Latitude: 50.951528N","longitude":"Longitude: 1.965783W","imgurl":"https://megalithic.co.uk/a558/a312/gallery/England/Dorset/pentridge4_03.jpg","description":"Long Barrow in Dorset"},"Gussage Down (South)":{"name":"Gussage Down (South)","url":"https://megalithic.co.uk/article.php?sid=11135","category":"Neolithic and Bronze Age","latitude":"Latitude: 50.921858N","longitude":"Longitude: 2.009908W","imgurl":"https://megalithic.co.uk/a558/a312/gallery/England/Dorset/gussage_s_barrow_profile.jpg","description":"Long Barrow in Dorset. This neolithic earthern barrow is 64m long and about 14m in breadth at its widest point. "},"Gussage Down (North)":{"name":"Gussage Down (North)","url":"https://megalithic.co.uk/article.php?sid=11132","category":"Neolithic and Bronze Age","latitude":"Latitude: 50.923656N","longitude":"Longitude: 2.011331W","imgurl":"https://megalithic.co.uk/a558/a312/gallery/England/Hampshire/gussage_n_barrow_side.jpg","description":"Long Barrow in Hampshire. This well-proportioned neolithic earthern barrow, trapezoidal in plan, is 50m long and about 25m in breadth at its widest point. As with many of the long barrows in this region its long axis points SE-NW, with the wider flatter end to the SE. It stands atop the ridge of Gussage Down and is visible for many miles around, and would have been intervisible with many other long barrows during neolithic times. Its parallel ditches have silted up but the mound itself is in good condition (with some modern agricultural debris at its lower NW end)."},"Northdown (Dorset)":{"name":"Northdown (Dorset)","url":"https://megalithic.co.uk/article.php?sid=11129","category":"Neolithic and Bronze Age","latitude":"Latitude: 50.662134N","longitude":"Longitude: 2.414492W","imgurl":"https://megalithic.co.uk/a558/a312/gallery/England/Dorset/northdown_barrows02.jpg","description":"Barrow Cemetery in Dorset. Another Dorset Bronze Age barrow cemetery in a spectacular chalk-ridge setting, akin to the nearby "},"Wyke Down barrows":{"name":"Wyke Down barrows","url":"https://megalithic.co.uk/article.php?sid=11126","category":"Neolithic and Bronze Age","latitude":"Latitude: 50.936245N","longitude":"Longitude: 1.988564W","imgurl":"https://megalithic.co.uk/a558/a312/gallery/England/Dorset/wyke_down_tumuli02.jpg","description":"Round Barrows in Dorset"},"Pentridge 3":{"name":"Pentridge 3","url":"https://megalithic.co.uk/article.php?sid=11123","category":"Neolithic and Bronze Age","latitude":"Latitude: 50.974900N","longitude":"Longitude: 1.945825W","imgurl":"https://megalithic.co.uk/a558/a312/gallery/England/Dorset/pentridge3_03.jpg","description":"Long Barrow in Dorset"},"Pentridge 2":{"name":"Pentridge 2","url":"https://megalithic.co.uk/article.php?sid=11121","category":"Neolithic and Bronze Age","latitude":"Latitude: 50.971032N","longitude":"Longitude: 1.942839W","imgurl":"https://megalithic.co.uk/a558/a312/gallery/England/Dorset/pentridge2_panorama.jpg","description":"Long Barrow in Dorset"},"Pentridge 1":{"name":"Pentridge 1","url":"https://megalithic.co.uk/article.php?sid=11122","category":"Neolithic and Bronze Age","latitude":"Latitude: 50.968334N","longitude":"Longitude: 1.942273W","imgurl":"https://megalithic.co.uk/a558/a312/gallery/England/Dorset/pentridge1longbarrow05.jpg","description":"Long Barrow in Dorset"},"Nettlecombe Tout":{"name":"Nettlecombe Tout","url":"https://megalithic.co.uk/article.php?sid=10844","category":"Iron Age and Later Prehistory","latitude":"Latitude: 50.827734N","longitude":"Longitude: 2.374783W","imgurl":"https://megalithic.co.uk/a558/a312/gallery/England/Dorset/nettlecombe_tout1.jpg","description":"This Iron Age fort is located on the end of a spur called Nettlecombe Tout. It is protected by very steep hillsides to the north-west and north-east, and the spur is cut across at the south-east by a bank and ditch. The original entrance is thought to be at the south-west end of the rampart, and it is possible that the fortifications were never finished."},"Spettisbury Rings":{"name":"Spettisbury Rings","url":"https://megalithic.co.uk/article.php?sid=10669","category":"Iron Age and Later Prehistory","latitude":"Latitude: 50.817480N","longitude":"Longitude: 2.123446W","imgurl":"https://megalithic.co.uk/a558/a312/gallery/England/Dorset/spettisbury_rings_from_northeast.jpg","description":"Hill / Promonotory fort in Dorset. Overlooking the village of Spettisbury and the floodplain of the Stour valley, with views across to Badbury Rings on the horizon. The central enclosure has a diameter of approx. 150m. Defended by a single rampart and ditch, with a single entrance to the north west. These poor defences suggest that the hillfort was never finished."},"Flower's Barrow":{"name":"Flower's Barrow","url":"https://megalithic.co.uk/article.php?sid=7528","category":"Iron Age and Later Prehistory","latitude":"Latitude: 50.624581N","longitude":"Longitude: 2.193907W","imgurl":"https://megalithic.co.uk/a558/a312/gallery/England/Dorset/flowers_barrow01.jpg","description":"This is a hillfort with a limited future. The south side is falling into the sea at Worbarrow Bay, with perhaps even half of it having already disappeared. "},"Two Gates (Dorset)":{"name":"Two Gates (Dorset)","url":"https://megalithic.co.uk/article.php?sid=7556","category":"Neolithic and Bronze Age","latitude":"Latitude: 50.741821N","longitude":"Longitude: 2.632246W","imgurl":"https://megalithic.co.uk/a558/a312/gallery/England/Dorset/westcompton1.jpg","description":"Burial Chamber in Dorset"},"Toller Porcorum":{"name":"Toller Porcorum","url":"https://megalithic.co.uk/article.php?sid=10289","category":"Neolithic and Bronze Age","latitude":"Latitude: 50.779006N","longitude":"Longitude: 2.624024W","imgurl":"https://megalithic.co.uk/a558/a312/gallery/England/Dorset/toller_porcorum.jpg","description":"Standing Stones in Dorset"},"The Harp Stone":{"name":"The Harp Stone","url":"https://megalithic.co.uk/article.php?sid=7530","category":"Neolithic and Bronze Age","latitude":"Latitude: 50.624868N","longitude":"Longitude: 2.112196W","imgurl":"https://megalithic.co.uk/a558/a312/gallery/England/Dorset/harpstone_5.JPG","description":"Standing Stone in Dorset"},"Woolsbarrow":{"name":"Woolsbarrow","url":"https://megalithic.co.uk/article.php?sid=7565","category":"Iron Age and Later Prehistory","latitude":"Latitude: 50.732015N","longitude":"Longitude: 2.152976W","imgurl":"https://megalithic.co.uk/a558/a312/gallery/England/Dorset/WoolsbaS02.jpg","description":"Hillfort in Dorset"},"Wool Road Sarsen Stone":{"name":"Wool Road Sarsen Stone","url":"https://megalithic.co.uk/article.php?sid=7564","category":"Neolithic and Bronze Age","latitude":"Latitude: 50.747594N","longitude":"Longitude: 2.21861W","imgurl":"https://megalithic.co.uk/a558/a312/gallery/England/Dorset/Bere.jpg","description":"Standing Stone in Dorset"},"Portesham Stone 3":{"name":"Portesham Stone 3","url":"https://megalithic.co.uk/article.php?sid=10252","category":"Neolithic and Bronze Age","latitude":"Latitude: 50.679530N","longitude":"Longitude: 2.556182W","imgurl":"https://megalithic.co.uk/a558/a312/gallery/England/Dorset/Portesham_Stone_3-1.jpg","description":"This stone lies right next to a footpath which runs from the Hardy Monument to Portesham Hill. It is of typical hard, flinty sarsen and has been incorporated in the construction of a field wall."},"Portesham Stone Row":{"name":"Portesham Stone Row","url":"https://megalithic.co.uk/article.php?sid=10253","category":"Neolithic and Bronze Age","latitude":"Latitude: 50.682227N","longitude":"Longitude: 2.556214W","imgurl":"https://megalithic.co.uk/a558/a312/gallery/England/Dorset/Portesham_Stones_01.jpg","description":"This is a possible stone row. It is a contiguous line of fallen stones on top of which a field wall has been built. The stones are slabs about 3' square. "},"Portesham Stone 4":{"name":"Portesham Stone 4","url":"https://megalithic.co.uk/article.php?sid=7548","category":"Neolithic and Bronze Age","latitude":"Latitude: 50.680436N","longitude":"Longitude: 2.554777W","imgurl":"https://megalithic.co.uk/a558/a312/gallery/England/Dorset/Portesham_Stone_3_02.jpg","description":"It stands by the north of the footpath running from the Hardy Monument to Portesham Hill immediately opposite Portesham Stone 10 and near to the possible stone row in the adjacent field."},"Portesham Stone 10":{"name":"Portesham Stone 10","url":"https://megalithic.co.uk/article.php?sid=7547","category":"Neolithic and Bronze Age","latitude":"Latitude: 50.679536N","longitude":"Longitude: 2.554766W","imgurl":"https://megalithic.co.uk/a558/a312/gallery/England/Dorset/Portesham_Stone_at_608868_02.jpg","description":"This Standing Stone in Dorset is a huge block of sarsen measuring over 6' across with a curiously shaped \"base\", possibly due to weathering. It stands by the south of the footpath running from the Hardy Monument to Portesham Hill immediately opposite Portesham Stone 4.\r\n\r\nIs it perhaps a fallen perhaps terminal stone of the Portesham Stone Row running along the edge of the field opposite?"},"Grey Mare Processional Way":{"name":"Grey Mare Processional Way","url":"https://megalithic.co.uk/article.php?sid=10198","category":"Neolithic and Bronze Age","latitude":"Latitude: 50.682067N","longitude":"Longitude: 2.588767W","imgurl":"https://megalithic.co.uk/a558/a312/gallery/England/Dorset/Kingstone_Russell_Stone_06.jpg","description":"A Processional Way/Avenue in Dorset. An ancient ridgeway path connected the sites of the Kingston Russell Stone Circle, Grey Mare and her Colts, Hampton Down Stone Circle and the Hellstone Barrow. It runs from SY 578877 near the Kingston Russell Circle, on past the Hellstone Barrow through a stone at SY 609867."},"Grey Mare and her Colts":{"name":"Grey Mare and her Colts","url":"https://megalithic.co.uk/article.php?sid=4660","category":"Neolithic and Bronze Age","latitude":"Latitude: 50.681700N","longitude":"Longitude: 2.590319W","imgurl":"https://megalithic.co.uk/a558/a312/gallery/England/Dorset/Grey_Mare__Her_Colts_02.jpg","description":"Long Barrow in Dorset"},"Chilcombe Hill Barrows":{"name":"Chilcombe Hill Barrows","url":"https://megalithic.co.uk/article.php?sid=7519","category":"Neolithic and Bronze Age","latitude":"Latitude: 50.722096N","longitude":"Longitude: 2.670017W","imgurl":"https://megalithic.co.uk/a558/a312/gallery/England/Dorset/Chilcombe_Barrow_10_696_x_522.jpg","description":"Round Barrows in Dorset"},"Kingston Russell Standing Stone":{"name":"Kingston Russell Standing Stone","url":"https://megalithic.co.uk/article.php?sid=4154","category":"Neolithic and Bronze Age","latitude":"Latitude: 50.721452N","longitude":"Longitude: 2.606968W","imgurl":"https://megalithic.co.uk/a558/a312/gallery/England/Dorset/DorsetStS1101.JPG","description":"This Standing Stone near Kingston Russell is also known as the Helstone. "},"Corscombe":{"name":"Corscombe","url":"https://megalithic.co.uk/article.php?sid=7522","category":"Neolithic and Bronze Age","latitude":"Latitude: 50.840674N","longitude":"Longitude: 2.691598W","imgurl":"https://megalithic.co.uk/a558/a312/gallery/England/Dorset/Corscombe_Stones_08.jpg","description":"This site, almost certainly the remains of a chambered long barrow, is in a small field on a public footpath running between a minor road just off the north side of the A356 and the village of Corscombe. It lies in a grassy valley with a small wood on the east side and steep sloping fields rising on the west side giving an air of tranquillity and seclusion."},"Evershot Stones":{"name":"Evershot Stones","url":"https://megalithic.co.uk/article.php?sid=7527","category":"Neolithic and Bronze Age","latitude":"Latitude: 50.840173N","longitude":"Longitude: 2.603537W","imgurl":"https://megalithic.co.uk/a558/a312/gallery/England/Dorset/Evershot_Stones_06.jpg","description":"3 stones, the largest 5' high, incorporated into a bench. These stones are probably the \"Three Dumb Sisters\" referred to in a field visit made in 1895. "},"Chilcombe Hill":{"name":"Chilcombe Hill","url":"https://megalithic.co.uk/article.php?sid=7517","category":"Iron Age and Later Prehistory","latitude":"Latitude: 50.725709N","longitude":"Longitude: 2.667235W","imgurl":"https://megalithic.co.uk/a558/a312/gallery/England/Dorset/Chilcombe_Barrow_10_696_x_522.jpg","description":"Hillfort in Dorset"},"Poxwell Cairn":{"name":"Poxwell Cairn","url":"https://megalithic.co.uk/article.php?sid=8374","category":"Neolithic and Bronze Age","latitude":"Latitude: 50.651248N","longitude":"Longitude: 2.361918W","imgurl":"https://megalithic.co.uk/a558/a312/gallery/England/Dorset/pox2.jpg","description":"Once named \"Pokeswell Druid's Temple\", Peter Knight, \"Ancient Stones of Dorset\" believes this to be the remains of a barrow, with natural Sarsen's around the site. "},"Knowlton Great Barrow":{"name":"Knowlton Great Barrow","url":"https://megalithic.co.uk/article.php?sid=4649","category":"Neolithic and Bronze Age","latitude":"Latitude: 50.891908N","longitude":"Longitude: 1.965257W","imgurl":"https://megalithic.co.uk/a558/a312/gallery/England/Dorset/knowlton_great_barrow02.jpg.JPG","description":"This is a large tree covered mound near to the Knowlton henges.  There seems to be some debate as to whether this is in fact a burial mound, or some form of viewing area.  "},"Broad Stone (Dorset)":{"name":"Broad Stone (Dorset)","url":"https://megalithic.co.uk/article.php?sid=3070","category":"Neolithic and Bronze Age","latitude":"Latitude: 50.710917N","longitude":"Longitude: 2.574257W","imgurl":"https://megalithic.co.uk/a558/a312/gallery/England/Dorset/2007_0217Image0009.JPG","description":"The Broadstone is to be found flat, almost buried on the verge of the A35 next to the AA layby. It was apparently laid flat to avoid accidents (ie careless drviers hitting it...)"},"Heedless William's Stone":{"name":"Heedless William's Stone","url":"https://megalithic.co.uk/article.php?sid=7531","category":"Neolithic and Bronze Age","latitude":"Latitude: 50.720702N","longitude":"Longitude: 2.381011W","imgurl":"https://megalithic.co.uk/a558/a312/gallery/England/Dorset/heedless1.jpg","description":"Standing Stone in Dorset"},"Dorchester, Tudor Arcade":{"name":"Dorchester, Tudor Arcade","url":"https://megalithic.co.uk/article.php?sid=7525","category":"Neolithic and Bronze Age","latitude":"Latitude: 50.714213N","longitude":"Longitude: 2.436198W","imgurl":"https://megalithic.co.uk/a558/a312/gallery/England/Dorset/DorchTimbCircle01.JPG","description":"Timber Circle in Dorset"},"Deverel Barrow":{"name":"Deverel Barrow","url":"https://megalithic.co.uk/article.php?sid=4658","category":"Neolithic and Bronze Age","latitude":"Latitude: 50.790285N","longitude":"Longitude: 2.256731W","imgurl":"https://megalithic.co.uk/a558/a312/gallery/England/Dorset/deverel3.jpg","description":"Round Barrow in Dorset"},"Holy Well (Holwell)":{"name":"Holy Well (Holwell)","url":"https://megalithic.co.uk/article.php?sid=8228","category":"Springs and Holy Wells","latitude":"Latitude: 50.907579N","longitude":"Longitude: 2.42947W","imgurl":"https://megalithic.co.uk/a558/a312/gallery/England/Dorset/AAAEE.JPG","description":"Holy Well / Spring in Dorset"},"St Augustine's Well (Cerne Abbas)":{"name":"St Augustine's Well (Cerne Abbas)","url":"https://megalithic.co.uk/article.php?sid=8229","category":"Springs and Holy Wells","latitude":"Latitude: 50.810904N","longitude":"Longitude: 2.474852W","imgurl":"https://megalithic.co.uk/a558/a312/gallery/England/Dorset/cernewell_pc101649.jpg","description":"Holy Well / Spring in Dorset"},"St Candida's Well":{"name":"St Candida's Well","url":"https://megalithic.co.uk/article.php?sid=8230","category":"Springs and Holy Wells","latitude":"Latitude: 50.740267N","longitude":"Longitude: 2.852373W","imgurl":"https://megalithic.co.uk/a558/a312/gallery/England/Dorset/st_wite_well.jpg","description":"Holy Well / Spring in Dorset"},"Upwey Wishing Well":{"name":"Upwey Wishing Well","url":"https://megalithic.co.uk/article.php?sid=8231","category":"Springs and Holy Wells","latitude":"Latitude: 50.665476N","longitude":"Longitude: 2.481024W","imgurl":"https://megalithic.co.uk/a558/a312/gallery/England/Dorset/UpweyWishingWell01.JPG","description":"Holy Well / Spring in Dorset"},"Corfe Castle":{"name":"Corfe Castle","url":"https://megalithic.co.uk/article.php?sid=7770","category":"Neolithic and Bronze Age","latitude":"Latitude: 50.640371N","longitude":"Longitude: 2.066414W","imgurl":"https://megalithic.co.uk/a558/a312/gallery/England/Dorset/corfe_castle01.jpg","description":"Round Barrows in Dorset"},"Kingston Russell Circle":{"name":"Kingston Russell Circle","url":"https://megalithic.co.uk/article.php?sid=162","category":"Neolithic and Bronze Age","latitude":"Latitude: 50.688580N","longitude":"Longitude: 2.598899W","imgurl":"https://megalithic.co.uk/a558/a312/gallery/England/Dorset/kingston_russell_stone_circle01.jpg","description":"The Kingston Russell stone circle is situated on the flat top of a chalk ridge, overlooking the Bride Valley to the north, and with views westwards to "},"Tenants Hill enclosure":{"name":"Tenants Hill enclosure","url":"https://megalithic.co.uk/article.php?sid=7773","category":"Multi-period","latitude":"Latitude: 50.692077N","longitude":"Longitude: 2.599142W","imgurl":"https://megalithic.co.uk/a558/a312/gallery/England/Dorset/Dorset_03_KR_Enclosure_view_P9280342.JPG","description":"There are a collection of earthworks on the promontory north of the Kingston Russell Stone circle, the largest of which is believed to be a Bronze Age enclosure. "},"Corfe Common":{"name":"Corfe Common","url":"https://megalithic.co.uk/article.php?sid=7771","category":"Neolithic and Bronze Age","latitude":"Latitude: 50.627787N","longitude":"Longitude: 2.056499W","imgurl":"https://megalithic.co.uk/a558/a312/gallery/England/Dorset/corfe_barrows01.jpg","description":"Barrow Cemetery in Dorset."},"Shipton Hill":{"name":"Shipton Hill","url":"https://megalithic.co.uk/article.php?sid=7774","category":"Iron Age and Later Prehistory","latitude":"Latitude: 50.726417N","longitude":"Longitude: 2.699832W","imgurl":"https://megalithic.co.uk/a558/a312/gallery/England/Dorset/PIC00637.jpg","description":"Hillfort in Dorset"},"The Castle":{"name":"The Castle","url":"https://megalithic.co.uk/article.php?sid=7775","category":"Iron Age and Later Prehistory","latitude":"Latitude: 50.799029N","longitude":"Longitude: 2.577465W","imgurl":"https://megalithic.co.uk/a558/a312/gallery/England/Durham_and_Tyne__Wear/thumb/The_Castles_flagstones.jpg","description":""},"Bincombe Barrows":{"name":"Bincombe Barrows","url":"https://megalithic.co.uk/article.php?sid=7509","category":"Neolithic and Bronze Age","latitude":"Latitude: 50.661136N","longitude":"Longitude: 2.441365W","imgurl":"https://megalithic.co.uk/a558/a312/gallery/England/Dorset/BincombeSY689847.jpg","description":"Barrow Cemetery in Dorset"},"Devil's Stone (Dorset)":{"name":"Devil's Stone (Dorset)","url":"https://megalithic.co.uk/article.php?sid=7524","category":"Neolithic and Bronze Age","latitude":"Latitude: 50.746272N","longitude":"Longitude: 2.232395W","imgurl":"https://megalithic.co.uk/a558/a312/gallery/England/Dorset/Devils.jpg","description":"The Devils Stone, on the summit of Black Hill near to Bere Regis in Dorset.  "},"Nine Barrow Down":{"name":"Nine Barrow Down","url":"https://megalithic.co.uk/article.php?sid=4668","category":"Neolithic and Bronze Age","latitude":"Latitude: 50.634095N","longitude":"Longitude: 2.008431W","imgurl":"https://megalithic.co.uk/a558/a312/gallery/England/Dorset/Xninebarrowdownbigone.JPG","description":"A Linear Barrow Cemetery of round barrows and a long barrow on the Purbeck ridgeway in Dorset. The long barrow is harder to discern. The barrows are very impressive, and clearly visible for many miles around."},"Giant's Grave Sarsen Stone":{"name":"Giant's Grave Sarsen Stone","url":"https://megalithic.co.uk/article.php?sid=7529","category":"Neolithic and Bronze Age","latitude":"Latitude: 50.814333N","longitude":"Longitude: 2.346287W","imgurl":"https://megalithic.co.uk/a558/a312/gallery/England/Dorset/giants_grave.jpg","description":"Natural Stone in Dorset."},"Kingston Russell Stone 3":{"name":"Kingston Russell Stone 3","url":"https://megalithic.co.uk/article.php?sid=7535","category":"Neolithic and Bronze Age","latitude":"Latitude: 50.712605N","longitude":"Longitude: 2.596231W","imgurl":"https://megalithic.co.uk/a558/a312/gallery/England/Dorset/kingston_russell_stone3.jpg","description":"Standing Stone in Dorset"},"Martin's Down Bell Barrows":{"name":"Martin's Down Bell Barrows","url":"https://megalithic.co.uk/article.php?sid=7536","category":"Neolithic and Bronze Age","latitude":"Latitude: 50.719216N","longitude":"Longitude: 2.604673W","imgurl":"https://megalithic.co.uk/a558/a312/gallery/England/Dorset/martinsdown_barrow01.jpg","description":"Round Barrows in Dorset"},"Nordon Hill Tumulus":{"name":"Nordon Hill Tumulus","url":"https://megalithic.co.uk/article.php?sid=7542","category":"Neolithic and Bronze Age","latitude":"Latitude: 50.827774N","longitude":"Longitude: 2.362005W","imgurl":"https://megalithic.co.uk/a558/a312/gallery/England/Dorset/Nordon_hill_tumulus.jpg","description":"A barrow, and once some standing stones, standing on the chalk ridge of Norden Hill, a few hundred metres east of the Dorsetshire Gap. "},"Pamphill":{"name":"Pamphill","url":"https://megalithic.co.uk/article.php?sid=7543","category":"Natural Places","latitude":"Latitude: 50.802258N","longitude":"Longitude: 2.008463W","imgurl":"https://megalithic.co.uk/a558/a312/gallery/England/Dorset/pamphill_a.jpg","description":"Natural Stone/Glacial Erratics in Dorset"},"Portesham Stone 1":{"name":"Portesham Stone 1","url":"https://megalithic.co.uk/article.php?sid=7545","category":"Neolithic and Bronze Age","latitude":"Latitude: 50.681315N","longitude":"Longitude: 2.559034W","imgurl":"https://megalithic.co.uk/a558/a312/gallery/England/Dorset/thumb/stone_in_hollow.jpg","description":""},"Portesham Stone 2":{"name":"Portesham Stone 2","url":"https://megalithic.co.uk/article.php?sid=7546","category":"Neolithic and Bronze Age","latitude":"Latitude: 50.681321N","longitude":"Longitude: 2.557618W","imgurl":"https://megalithic.co.uk/a558/a312/gallery/England/Dorset/PortStone2.JPG","description":"Standing Stone in Dorset"},"Hore Stones":{"name":"Hore Stones","url":"https://megalithic.co.uk/article.php?sid=7555","category":"Neolithic and Bronze Age","latitude":"Latitude: 50.828145N","longitude":"Longitude: 2.685932W","imgurl":"https://megalithic.co.uk/https://maps.google.com/maps?t=k&amp;q=50.82814455984,-2.6859322927802(Hore+Stones)&amp;ie=UTF8&amp;ll=50.828145,-2.685932&amp;spn=0.007604,0.021136&amp;z=14&amp;layer=c&amp;cbll=50.828137,-2.685754&amp;panoid=SkEuKDbTxEqlxgFoIe43eg&amp;cbp=12,274.48,,0,12.24&amp;source=embed&amp;output=svembed","description":""},"Verwood Stone":{"name":"Verwood Stone","url":"https://megalithic.co.uk/article.php?sid=7558","category":"Neolithic and Bronze Age","latitude":"Latitude: 50.889861N","longitude":"Longitude: 1.868156W","imgurl":"https://megalithic.co.uk/a558/a312/gallery/England/Dorset/Verwood.jpg","description":"Stephen's Stone is an ancient block of sandstone found hidden in woodland. It is thought to weigh around 3 tons."},"Whitcombe":{"name":"Whitcombe","url":"https://megalithic.co.uk/article.php?sid=7559","category":"Neolithic and Bronze Age","latitude":"Latitude: 50.693653N","longitude":"Longitude: 2.402028W","imgurl":"https://megalithic.co.uk/a558/a312/gallery/England/Dorset/Whit01.JPG","description":"Standing Stone in Dorset"},"Wimborne St Giles":{"name":"Wimborne St Giles","url":"https://megalithic.co.uk/article.php?sid=7560","category":"Neolithic and Bronze Age","latitude":"Latitude: 50.909255N","longitude":"Longitude: 1.943057W","imgurl":"https://megalithic.co.uk/a558/a312/gallery/England/Dorset/wimborne_st_giles02.JPG","description":"Round Barrows in Dorset"},"Winterbourne Steepleton":{"name":"Winterbourne Steepleton","url":"https://megalithic.co.uk/article.php?sid=7562","category":"Neolithic and Bronze Age","latitude":"Latitude: 50.705648N","longitude":"Longitude: 2.547994W","imgurl":"https://megalithic.co.uk/a558/a312/gallery/England/Dorset/WinterSteep.JPG","description":"Remains of a burial chamber; two stones lie halfway up the hillside within farmland on the west side of the road from Hardy Monument to Winterborne Steepleton. "},"Bishops Limekiln Car Park":{"name":"Bishops Limekiln Car Park","url":"https://megalithic.co.uk/article.php?sid=7511","category":"Neolithic and Bronze Age","latitude":"Latitude: 50.671305N","longitude":"Longitude: 2.582972W","imgurl":"https://megalithic.co.uk/a558/a312/gallery/England/Dorset/Bishops_Limekiln_Car_Park02.jpg","description":"Standing Stone in Dorset"},"Blandford Forum Stones":{"name":"Blandford Forum Stones","url":"https://megalithic.co.uk/article.php?sid=7512","category":"Neolithic and Bronze Age","latitude":"Latitude: 50.851599N","longitude":"Longitude: 2.166153W","imgurl":"https://megalithic.co.uk/a558/a312/gallery/England/Dorset/Optimized-BlandfordForum3.JPG","description":"Standing Stones in Dorset"},"Bourton Monolith":{"name":"Bourton Monolith","url":"https://megalithic.co.uk/article.php?sid=7513","category":"Neolithic and Bronze Age","latitude":"Latitude: 51.079867N","longitude":"Longitude: 2.321472W","imgurl":"https://megalithic.co.uk/a558/a312/gallery/England/Dorset/Bourton_Monolith.jpg","description":"Standing Stone in Dorset"},"Conygar Hill Barrows":{"name":"Conygar Hill Barrows","url":"https://megalithic.co.uk/article.php?sid=7520","category":"Neolithic and Bronze Age","latitude":"Latitude: 50.698947N","longitude":"Longitude: 2.430392W","imgurl":"https://megalithic.co.uk/a558/a312/gallery/England/Dorset/ConygarBarrows.jpg","description":"Barrow Cemetery in Dorset"},"Chalbury":{"name":"Chalbury","url":"https://megalithic.co.uk/article.php?sid=1498","category":"Iron Age and Later Prehistory","latitude":"Latitude: 50.653075N","longitude":"Longitude: 2.432802W","imgurl":"https://megalithic.co.uk/a558/a312/gallery/England/Dorset/ChalfromSouth.JPG","description":"Hillfort in Dorset"},"Little Mayne":{"name":"Little Mayne","url":"https://megalithic.co.uk/article.php?sid=1081","category":"Neolithic and Bronze Age","latitude":"Latitude: 50.681977N","longitude":"Longitude: 2.397682W","imgurl":"https://megalithic.co.uk/a558/a312/gallery/England/Dorset/LittleMayne03.jpg","description":"Stone Circle in Dorset"},"Culliford Tree":{"name":"Culliford Tree","url":"https://megalithic.co.uk/article.php?sid=4656","category":"Neolithic and Bronze Age","latitude":"Latitude: 50.753811N","longitude":"Longitude: 2.42806W","imgurl":"https://megalithic.co.uk/a558/a312/gallery/England/Dorset/CameWood0289-bec.JPG","description":"This cemetery of Bronze Age bell-, bowl- and pond barrows extends from the wood, east across the hill top, with a glorious view to the coast, including Chalbury Hill Fort, and the impressive Bincombe Barrows. The eastern members of the group are aligned on and scattered around the neolithic Broadmayne bank barrow."},"Poundbury":{"name":"Poundbury","url":"https://megalithic.co.uk/article.php?sid=1500","category":"Iron Age and Later Prehistory","latitude":"Latitude: 50.719555N","longitude":"Longitude: 2.450413W","imgurl":"https://megalithic.co.uk/a558/a312/gallery/England/Dorset/poundbury01.jpg","description":"Hillfort in Dorset"},"Litton Cheney":{"name":"Litton Cheney","url":"https://megalithic.co.uk/article.php?sid=6521","category":"Neolithic and Bronze Age","latitude":"Latitude: 50.723587N","longitude":"Longitude: 2.630017W","imgurl":"https://megalithic.co.uk/a558/a312/gallery/England/Dorset/LittonCheneyTimberCircleSite-bec0166.jpg","description":"Timber Circle in Dorset"},"Poor Lot Barrows":{"name":"Poor Lot Barrows","url":"https://megalithic.co.uk/article.php?sid=4669","category":"Neolithic and Bronze Age","latitude":"Latitude: 50.714468N","longitude":"Longitude: 2.583507W","imgurl":"https://megalithic.co.uk/a558/a312/gallery/England/Dorset/PoorLotBarrows-bec-0179.jpg","description":"Barrow Cemetery of bowl, bell, pond and disk barrows in Dorset"},"Ferny Barrows":{"name":"Ferny Barrows","url":"https://megalithic.co.uk/article.php?sid=7446","category":"Neolithic and Bronze Age","latitude":"Latitude: 50.634838N","longitude":"Longitude: 2.190838W","imgurl":"https://megalithic.co.uk/a558/a312/gallery/England/Dorset/Ferny_Barrows_039.jpg","description":"Round Barrows in Dorset. A pair of bowl barrows north of Boat Knoll."},"Hardy Monument Barrows":{"name":"Hardy Monument Barrows","url":"https://megalithic.co.uk/article.php?sid=4663","category":"Neolithic and Bronze Age","latitude":"Latitude: 50.686757N","longitude":"Longitude: 2.549189W","imgurl":"https://megalithic.co.uk/a558/a312/gallery/England/Dorset/HardyBarrow-bec0184.JPG","description":"Barrow Cemetery of around twenty-five barrows in Dorset"},"East Lulworth":{"name":"East Lulworth","url":"https://megalithic.co.uk/article.php?sid=7445","category":"Neolithic and Bronze Age","latitude":"Latitude: 50.632133N","longitude":"Longitude: 2.195069W","imgurl":"https://megalithic.co.uk/a558/a312/gallery/England/Dorset/East_Lulworth_036.jpg","description":"Barrow Cemetery in Dorset. A linear arrangement of three bowl barrows."},"Lord's Barrow":{"name":"Lord's Barrow","url":"https://megalithic.co.uk/article.php?sid=7444","category":"Neolithic and Bronze Age","latitude":"Latitude: 50.657049N","longitude":"Longitude: 2.31542W","imgurl":"https://megalithic.co.uk/a558/a312/gallery/England/Dorset/Lords_Barrow_021.jpg","description":"Round Barrow in Dorset. On the brow of the hill on the road to East Chaldon"},"Five Marys":{"name":"Five Marys","url":"https://megalithic.co.uk/article.php?sid=7443","category":"Neolithic and Bronze Age","latitude":"Latitude: 50.657094N","longitude":"Longitude: 2.298444W","imgurl":"https://megalithic.co.uk/a558/a312/gallery/England/Dorset/Five_Marys_008.jpg","description":"Barrow Cemetery in Dorset. There are actually 7 or 8 round barrows strung out in a line alongside the ridgeway. "},"Boat Knoll":{"name":"Boat Knoll","url":"https://megalithic.co.uk/article.php?sid=7450","category":"Neolithic and Bronze Age","latitude":"Latitude: 50.631243N","longitude":"Longitude: 2.18941W","imgurl":"https://megalithic.co.uk/a558/a312/gallery/England/Dorset/Boat_Knoll_002.jpg","description":"Round Barrow in Dorset"},"Thickthorn Down (North)":{"name":"Thickthorn Down (North)","url":"https://megalithic.co.uk/article.php?sid=4645","category":"Neolithic and Bronze Age","latitude":"Latitude: 50.910160N","longitude":"Longitude: 2.044041W","imgurl":"https://megalithic.co.uk/a558/a312/gallery/England/Dorset/thickthorn_down_north02.jpg","description":"Long Barrow in Dorset"},"Rawlsbury Camp":{"name":"Rawlsbury Camp","url":"https://megalithic.co.uk/article.php?sid=4643","category":"Iron Age and Later Prehistory","latitude":"Latitude: 50.851245N","longitude":"Longitude: 2.331645W","imgurl":"https://megalithic.co.uk/a558/a312/gallery/England/Dorset/rawlsbury.jpg","description":"Hillfort in Dorset"},"Pimperne Long Barrow":{"name":"Pimperne Long Barrow","url":"https://megalithic.co.uk/article.php?sid=4642","category":"Neolithic and Bronze Age","latitude":"Latitude: 50.893920N","longitude":"Longitude: 2.119383W","imgurl":"https://megalithic.co.uk/a558/a312/gallery/England/Dorset/pimperne_long_barrow03.jpg","description":"The longest long barrow in Dorset, 106 metres along its axis and 27m wide at its broadest point. "},"Pilsdon Pen":{"name":"Pilsdon Pen","url":"https://megalithic.co.uk/article.php?sid=4641","category":"Iron Age and Later Prehistory","latitude":"Latitude: 50.808265N","longitude":"Longitude: 2.834465W","imgurl":"https://megalithic.co.uk/a558/a312/gallery/England/Dorset/Pilsdon_Pen1.jpg","description":"Hillfort in Dorset"},"Oakley Down Barrows":{"name":"Oakley Down Barrows","url":"https://megalithic.co.uk/article.php?sid=4650","category":"Neolithic and Bronze Age","latitude":"Latitude: 50.955217N","longitude":"Longitude: 1.975461W","imgurl":"https://megalithic.co.uk/a558/a312/gallery/England/Dorset/IMG_5505oakleyDown.jpg","description":"A barrow cemetery of at least 29 barrows in Dorset."},"Thickthorn Round Barrows":{"name":"Thickthorn Round Barrows","url":"https://megalithic.co.uk/article.php?sid=1487","category":"Neolithic and Bronze Age","latitude":"Latitude: 50.909261N","longitude":"Longitude: 2.042618W","imgurl":"https://megalithic.co.uk/a558/a312/gallery/England/Dorset/thickthorn_round_barrows01.jpg","description":"Round Barrow(s) in Dorset"},"Martin's Down Round Barrows":{"name":"Martin's Down Round Barrows","url":"https://megalithic.co.uk/article.php?sid=4667","category":"Neolithic and Bronze Age","latitude":"Latitude: 50.719718N","longitude":"Longitude: 2.611904W","imgurl":"https://megalithic.co.uk/a558/a312/gallery/England/Dorset/NrHelstone.jpg","description":"Martins Down Bell Barrows are two Bell Barrows adjacent to A35 in Dorset at SY571911. They are 22.9m &amp; 27.4m diameter , and approx. 1.8m high (ref. R.C.H.M. Dorset 1(1952)41. "},"Hod Hill":{"name":"Hod Hill","url":"https://megalithic.co.uk/article.php?sid=4640","category":"Iron Age and Later Prehistory","latitude":"Latitude: 50.894698N","longitude":"Longitude: 2.206119W","imgurl":"https://megalithic.co.uk/a558/a312/gallery/England/Dorset/hod_hill02.jpg","description":"The mighty iron-age ramparts and ditches on Hod Hill enclose an area of 22 hectares, making it the largest hillfort in Dorset. In addition to the earthwork defences, in the southeast corner there are still traces of hut circles and boundaries of the iron-age settlement."},"Coney's Castle":{"name":"Coney's Castle","url":"https://megalithic.co.uk/article.php?sid=4657","category":"Iron Age and Later Prehistory","latitude":"Latitude: 50.773666N","longitude":"Longitude: 2.891996W","imgurl":"https://megalithic.co.uk/a558/a312/gallery/England/Dorset/Coneys_Castle1.jpg","description":"Promontary fort in Dorset"},"Bindon Hill":{"name":"Bindon Hill","url":"https://megalithic.co.uk/article.php?sid=4655","category":"Iron Age and Later Prehistory","latitude":"Latitude: 50.622156N","longitude":"Longitude: 2.240264W","imgurl":"https://megalithic.co.uk/a558/a312/gallery/England/Dorset/a20170414_143325_Lulworth_Cove.jpg","description":"Not much remains of this hillfort earthworks, at the back of Lulworth Cove, but perhaps there never needed to be much, due to the steepness of the hill on the northern side, and the cliffs on the southern side. "},"Abbotsbury Castle":{"name":"Abbotsbury Castle","url":"https://megalithic.co.uk/article.php?sid=4654","category":"Iron Age and Later Prehistory","latitude":"Latitude: 50.677349N","longitude":"Longitude: 2.631167W","imgurl":"https://megalithic.co.uk/a558/a312/gallery/England/Dorset/Abbotsbury_Hillfort6.jpg","description":"Abbotsbury Hillfort in Dorset. A triangular enclosure of 1.8 hectares, with two ramparts separated by single ditch The defences are increased to 4 ramparts and larger ditches at the more vulnerable southeastern end. The bivallate hillfort was developed from a simpler univallate one, and the ramparts appear to have been constructed in a hurry with loads of soil dumped on the banks.\r\n"},"Hampton Down":{"name":"Hampton Down","url":"https://megalithic.co.uk/article.php?sid=973","category":"Neolithic and Bronze Age","latitude":"Latitude: 50.676750N","longitude":"Longitude: 2.573132W","imgurl":"https://megalithic.co.uk/a558/a312/gallery/England/Dorset/HamptonDown1101.JPG","description":"Stone Circle in Dorset"}}